Location number,Location name,Lat,Lon,Corr with Adult female lice,Corr with Lice in moving stages,Corr with Attached lice
10029,Tuholmane Ø,59.371235,5.216333,-0.161183546,0.233384453,0.160236064
10041,Kviksholmen,60.054317,5.090733,0.038425459,-0.080473061,-0.207257663
10045,Eidholmen,60.08808,5.120633,-0.276335142,-0.12165288,-0.301006676
10050,Ospøy Ø,59.866566,5.228133,-0.067351363,0.034284121,-0.086674465
10054,Tobbeholmane,60.02558,5.309083,0.033923517,-0.061239016,-0.184998573
10078,Mjånes,60.997734,5.0304,-0.1266063,-0.021745784,0.069080728
10080,Laksevika,60.53015,5.11575,-0.141059444,-0.152865227,-0.274156513
10086,Rekeviki,60.723415,5.328583,0.111237253,-0.1472976,-0.260333267
10087,Kalvøya N,61.32,4.708333,-0.018495351,-0.130038904,-0.036411229
10090,Trellevika,61.370384,5.0185,0.142772798,0.034043447,-0.143048968
10091,Vågsøya,61.490383,5.0247,0.301515673,-0.104086573,-0.075339334
10110,Djupevik,59.1474,5.863783,-0.129708145,-0.226929127,-0.120613948
10113,Kobbavika,59.12232,5.934433,-0.22990845,-0.056527015,-0.053724611
10136,Onarøy,59.95335,5.669683,-0.131113796,-0.289474936,-0.285226919
10137,Matland,60.264084,5.6591,0.000552897,0.052546374,0.235542538
10147,Tungesvik,59.741932,5.98095,-0.373328939,-0.289127247,-0.251518223
10149,Rafdal,59.790085,6.17615,-0.225777663,-0.091984933,-0.050384355
10181,Oksebåsen V,62.52025,6.16075,0.094969126,0.073004128,0.091012374
10194,Hellaren,62.735832,6.74745,0.117325833,0.183251605,0.316401641
10197,Opshaugvik,62.28765,6.990333,-0.012563518,-0.112770208,-0.131533114
10206,Kleven,63.0693,7.60185,0.13038059,0.086988036,-0.107686233
10212,Bogen,63.076782,7.9046,0.153981236,0.03383442,0.045446062
10213,Naustneset,62.9424,8.0756,0.029805779,-0.051094054,-0.017146643
10216,Skåren,63.076283,8.191733,0.059609988,-0.008553173,-0.25463817
10223,Bremnessvaet,63.39795,8.214317,0.179250593,0.218312105,0.155935908
10224,Korsneset,63.14268,8.225383,0.135150226,0.023798257,-0.114968193
10229,Fætten,63.144585,8.459567,0.10760483,-0.019779068,-0.106973034
10232,Mannbruholmen,63.8473,8.53675,0.240856204,0.319597627,0.252331297
10240,Ilsøya Ø,63.651974,8.88687,-0.033038633,0.297867302,0.264782803
10256,Bondøya,64.8168,10.7427,0.004882704,0.110632792,0.16172207
10262,Lille Kvitholmen,65.01145,11.6139,-0.002414669,0.153200231,0.27348767
10264,Digermulen,64.9774,11.728117,0.031694169,-0.041918054,0.153123025
10275,Auskarnes Ø,70.14145,22.3542,-0.021352476,0.150603437,0.116933688
10276,Sommarbukt,70.07733,22.66705,-0.328963733,-0.281018872,-0.075745283
10281,Store Kvalfjord,70.32111,22.896517,-0.069303976,0.027655788,0.148807549
10291,Hiskholmen,59.72585,5.144717,0.039001397,0.14705619,-0.057619425
10292,Lyklingholmen N,59.713833,5.155467,-0.07810992,0.084325458,-0.116001297
10298,Ålforo,59.866417,5.2447,0.180429087,0.114804175,0.207756315
10300,Hillersvik,59.6084,5.311917,0.043989829,-0.046146369,-0.139023128
10303,Nappeholmane,59.742985,5.363633,0.178458906,-0.007749465,-0.282177213
10309,Syrtangen,60.46773,4.968667,0.056118421,-0.032758876,-0.152621884
10311,Storlia,61.203133,5.193833,0.162894372,-0.037354175,-0.106490322
10317,Garvik,61.31663,4.979333,0.49778405,0.189520289,0.068170081
10318,Gulestø,61.75802,5.069883,-0.024701498,0.003681774,-0.203560698
10319,Ålvora,61.585766,5.136833,-0.054255243,-0.018035109,0.020447844
10324,Gjerdeviksflua,60.223267,5.64105,0.160887567,0.01631127,0.024035201
10327,Skiftesneset S,60.066666,5.7434,0.629680849,0.530202021,0.035923598
10328,Sagvik,60.141033,5.906933,-0.206367557,-0.263482529,-0.304028176
10331,Åkre,60.11283,6.044717,-0.055322246,-0.138676675,-0.210493704
10332,Trommo,60.0833,6.082633,-0.047452231,-0.108536575,-0.182120386
10338,Djupevik,60.406715,6.35625,-0.208646905,-0.227010862,-0.232903249
10375,Nord Leksa,63.589367,9.409217,0.231375317,0.282650658,0.235434645
10398,Seiskjæra,64.093,10.115683,0.171038143,0.082181202,0.143589741
10409,Kjelneset,64.64397,11.3888,0.070333553,0.132329793,0.191109864
10410,Hindholmen,64.77393,11.44087,-0.099869571,-0.021884039,-0.14212726
10417,Storbukta,64.9591,11.6157,0.185745391,0.28104146,0.305246925
10421,Storvikbukta,64.92828,11.91045,0.079302583,0.112970241,0.167225104
10425,Heggvika,65.12658,12.071983,0.184282018,0.170410135,0.140384798
10447,Mefaldskjæret,65.85145,12.2872,0.098583198,0.138715641,0.172675646
10475,Rotholmen,66.80905,13.115467,-0.166381777,0.168512261,0.336697162
10504,Vedvika,68.78194,14.6153,0.276515648,0.201400806,-0.087347751
10505,Dragnes,68.58393,14.707267,-0.111580278,0.00666536,0.069709652
10513,Nedre Kvarv,67.45849,15.511583,0.062801078,0.119681402,0.066264913
10518,Horsvågen,68.0213,15.29955,0.103843818,0.12050589,0.346993374
10536,Høgholmen,69.031586,16.481867,0.179260638,0.33493453,0.171893765
10544,Flakstadvåg,69.18712,17.015083,-0.068499543,-0.014841644,0.194630686
10545,Sylsnes,69.335266,17.076218,-0.186591512,-0.129539966,-0.070140631
10550,Skardbergvika,68.728386,17.309683,-0.320570897,-0.264128608,0.190897161
10552,Storvika III,68.89622,17.487316,-0.015750354,-0.091812105,0.081635384
10570,Uløy,69.79892,20.641933,0.04448916,-0.017164286,-0.050110036
10582,Tarmevikodden,58.21977,6.685633,-0.295712328,-0.257437237,-0.057384829
10611,Marøya,70.249916,21.706083,0.033905282,0.042906081,-0.011008962
10614,Kråkevik,70.263016,23.306217,-0.158456134,-0.062501643,0.149786075
10616,Vinnalandet,70.57315,23.397882,-0.01291485,0.058874133,0.162138306
10635,Toknebuktneset,70.57253,24.075567,0.057487045,0.181791941,0.185121693
10652,Vedbotn,70.7514,25.636984,-0.346609576,-0.280402792,-0.098896192
10660,Skinnstakkvika,70.88918,24.944717,-0.046145767,0.068463171,0.105776215
10724,Klokkstein,69.81612,20.717817,-0.049753846,-0.094310914,-0.101112826
10726,Uløybukt,69.860085,20.713966,-0.216302696,-0.227260697,-0.123074716
10734,Gourtesjouka,69.57835,20.510433,0.08768298,0.144783174,0.102014889
10735,Årøya,69.66327,20.314917,-0.037799818,0.107845541,0.235819273
10736,Stigen,69.57698,20.243067,0.748455199,0.791666667,0.25
10747,Futnes,69.95135,19.587732,-0.146216456,-0.102268715,0.075793426
10753,Strandmo,69.88185,19.435083,0.001193059,-0.065943299,0.09867259
10754,Glimbukta,69.833015,19.361467,-0.371619928,-0.336852693,0.065118963
10757,Dåvøya,70.0722,19.341066,-0.198503476,-0.068147451,0.054620219
10759,Karanes,70.06635,19.304867,0.010021846,0.090323902,0.151180815
10789,Store Lerresfjord,70.2875,23.465883,-0.200081296,0.010279253,0.114711108
10790,Olderfjord,70.38403,23.484533,-0.177094969,0.031207775,0.13611801
10791,Nordnes,70.28637,23.400284,-0.093755207,0.084758157,0.18658712
10794,Mortensnes,70.124214,23.223833,-0.077198571,0.027229283,0.118305451
10795,Olaneset,70.2122,22.2785,-0.054237139,0.092445068,0.148302567
10796,Hundbergan,70.19945,21.811016,0.035093442,0.093056729,0.073073132
10798,,,,-0.379702136,-0.353247892,-0.374219035
10803,Fjellbukt,69.90414,21.875168,0.106054737,0.190186605,0.145681961
10804,Karvika,69.85198,21.828983,0.013866363,0.23934614,0.103446898
10806,Rakkenes,69.88507,21.729982,0.142565129,0.176530162,0.192646698
10808,Hjellberget,69.9116,21.597166,-0.083918959,0.014756753,0.089028909
10811,Elva I Årøysundet,70.1337,23.330383,0.255115657,0.171036257,0.157933421
10814,Mårsanjarga,70.23962,23.286882,-0.100630948,-0.000898431,0.039317352
10819,Eidsnes,70.091,22.755167,0.030326772,-0.034555796,0.042866435
10821,Tuvan,70.09005,22.705366,-0.042118899,-0.135755384,-0.034703167
10822,Rivarbukt,70.08587,22.6618,-0.03354109,-0.024033165,-0.064810422
10823,Lille Skognes,70.13323,22.442966,0.2405988,0.038843156,-0.160565865
10825,Steinviknes,70.15147,22.308067,-0.093291037,0.066750979,0.122113812
10828,Kleppenes N,70.53805,23.558533,-0.214860491,-0.139759762,0.080518835
10834,Vinnaeide,70.568886,23.372334,0.024051651,0.032969793,0.21665079
10837,Kraken,70.66655,23.184933,-0.163755211,0.164689683,0.290231546
10838,Slettnesfjord,70.62552,23.107933,-0.037132281,0.091426289,0.238211224
10839,Store Kufjord,70.35332,23.079117,-0.142542714,0.017314321,0.110250716
10840,Lille Kufjord,70.34752,22.972967,-0.045205512,0.126702333,0.250569586
10841,Pollen,70.34088,22.804867,-0.230622578,0.015198571,0.18461633
10858,Mulingen,65.108315,12.438133,0.171210402,0.16340858,0.168524548
10862,Båsen,65.11767,12.321467,0.502617219,0.33536655,0.071094615
10870,Aunholmen Ø,65.70697,12.621217,-0.211350534,-0.59765399,-0.701392977
10875,Storurdvika,65.7337,12.5357,-0.243264045,-0.227424415,0.154566285
10876,Istervika,65.446884,12.56175,-0.194109587,-0.154509692,-0.010525767
10877,Mortenøy,65.45723,12.549733,0.133447765,0.064523075,-0.021142939
10880,Forvik,65.723236,12.475317,-0.235520247,-0.174636083,0.214278545
10885,Jektvika II,65.31274,12.4022,-0.175853834,-0.080350899,-0.001284052
10893,Rensøya N,66.50412,12.07285,0.294750963,0.364583965,0.276456065
10898,Lamholmen,65.47138,12.135,0.039847179,0.12614036,0.115954565
10960,Aspviksundet,65.86287,12.624533,-0.126377678,-0.312671171,-0.158433792
10961,Skonseng,65.80763,12.6242,0.034384809,0.121481104,0.179296093
10968,Vardskjær Ø,66.35845,12.485017,0.005329755,0.05621517,0.148692438
10974,Store Bukkøy N,66.40072,12.4117,0.175689683,0.254875046,0.109699255
10989,Labukta V,66.01325,12.350567,0.066375624,0.136312779,0.052238922
10990,Lille Åsvær,66.22887,12.312267,0.119779779,0.26447713,0.345251015
10996,Ramnøya S,66.23212,12.280317,0.330498239,0.390638546,0.449696601
11015,Brattholmen,65.90735,12.220967,0.110927479,0.130759458,0.140461289
11041,Nord Gåsvær,66.07035,12.065617,0.120128892,0.193923497,0.202103365
11072,Rendalsvik,66.69935,13.624117,0.165427446,0.282708802,0.328738128
11074,Kvalvika,66.66908,13.391633,0.189733476,0.242101121,0.206661766
11076,Digermulen,66.675735,13.317517,0.081911326,0.227759386,0.288820955
11087,Bukkøya Ø,66.64097,12.994583,0.047233909,0.110844241,0.187557869
11088,Ørnstolen,66.584,13.003933,0.111315958,0.283117411,0.255096103
11112,Kjerkvika,67.107864,14.268983,0.142693371,0.180414138,0.225852011
11116,Langholmen,67.05783,14.025333,0.054635189,0.024698043,0.058255069
11119,Arnøysundet,67.14978,13.991,-0.149905325,0.133806653,0.396931803
11122,Røssøya N,67.073,13.947583,0.041032607,0.096408194,0.176536316
11129,Nordfugløy,67.083916,13.85685,0.121463368,0.230314378,0.266488148
11137,Vassdalsvik,66.807884,13.56575,-0.062188004,0.093875412,0.090582812
11138,Skålsvika,66.7146,13.561517,0.231198603,0.319032426,0.221222043
11144,Svinvær,66.769485,13.171383,0.172360488,0.20166946,0.19586873
11162,Bullatholmen,68.43512,14.848083,-0.038478188,-0.00864758,0.214204819
11168,Oddværsætra,68.270386,14.769217,-0.24130913,-0.331231666,-0.303141989
11179,Alterosen,68.20737,14.446867,0.145622333,0.234458642,0.065786876
11193,Gamskjæran,68.11055,13.74305,-0.07521817,-0.208177485,0.004658964
11198,Geiterøya I,68.09026,13.735617,0.165175533,0.151646097,0.182240238
11201,Kolvikodden Ø,68.088165,13.68965,-0.195464145,0.071881789,0.149935775
11204,Buviknakken,68.08428,13.659167,-0.313379114,0.360318995,0.127195596
11205,Oterholmen I,68.092636,13.634483,0.144390568,0.220878338,0.191063253
11225,Juvågen,68.91765,14.985133,0.149651337,0.174376418,0.17198684
11238,Langøyhovden,68.80338,14.866383,-0.022190881,-0.079735998,0.062231542
11241,Bergvikodden,68.57475,14.850883,0.047895927,0.138900098,0.214693921
11248,Bonhammaren,68.81738,14.7101,-0.006392865,-0.030689985,-0.018030961
11251,Hysjorda,68.79065,14.626133,-0.021343136,-0.006611692,0.058389267
11252,Vindhammeren,68.78065,14.59325,0.207715267,-0.007076052,0.034021347
11269,Jektvika I,67.52995,15.444017,-0.008347378,0.040728,0.095203354
11272,Øksengård,67.13697,15.4048,0.003748976,-0.075354925,0.033594754
11273,Skysselvika V,67.243034,15.398867,-0.089489735,-0.055727919,-0.0913322
11274,Bjørnsvik,67.533035,15.386383,0.229123428,0.237477231,0.097153527
11290,Stormneset,68.19825,16.134117,0.198634812,0.257464443,0.111849293
11298,Storøya Nø,68.42872,15.867383,0.010424084,0.085130115,0.096944394
11303,Veggfjell,67.96265,15.808267,0.078039986,0.115238988,0.121131308
11312,Svartfjell,67.93948,15.503168,0.215690966,0.254177695,0.294875997
11315,Hellarvika,67.7267,15.3812,0.140348638,0.123397452,0.050875706
11318,Hallvardøy,68.37497,15.317333,0.111506221,0.139322067,0.223561619
11320,Oksøy,67.97493,15.310767,-0.135350628,-0.0185398,0.013072262
11326,Skøyen,69.017,17.45725,0.008163053,0.063758354,0.119479228
11330,Åmundsvika,68.72655,17.343483,-0.129135996,-0.025637148,0.244964873
11332,Myrlandshaug,68.78055,17.282284,-0.119971083,-0.193477427,0.007131037
11334,Skjærvika,68.73206,17.226067,0.001004578,0.185921971,0.127927931
11338,Ytre Stræte,68.71948,17.138817,-0.060484813,-0.071141252,-0.014636662
11339,Ånderkleiva,68.925415,17.14895,-0.120811432,0.009879279,0.119605728
11340,Bjørnstein,68.886185,17.109217,-0.083477925,-0.001354227,0.141234953
11350,Lavika,69.25753,17.0887,-0.134561004,0.027460148,0.114719213
11351,Trollvika,68.71725,17.022217,0.038055205,0.034897601,0.235309953
11353,Finnstein,69.32917,17.060183,-0.261913755,-0.278767094,-0.328180122
11355,Flesen,69.246666,17.025,-0.077167508,0.020454628,0.136207253
11356,Husvika,69.33725,17.02415,-0.267612907,-0.264107505,-0.188143174
11357,Skarvberget,69.14668,17.009933,0.04534297,0.15004428,0.306714829
11363,Enkeltstein,68.727585,16.910168,0.035784955,0.179168504,0.156602785
11364,Årberg,69.1959,16.91595,-0.085725364,-0.031077952,0.204779295
11365,Gjervika,69.0505,16.883734,-0.005875343,0.040370952,0.227182012
11378,Øvergården,68.98167,16.534666,-0.15255312,-0.204791691,-0.054530172
11381,Dypingen,68.96087,16.530416,0.074209818,0.113982658,0.092658531
11385,Vestnes,68.98158,16.48835,-0.081312347,0.126752361,0.181269225
11399,Bogelva,68.6565,15.90035,-0.257897134,-0.229936899,-0.079785326
11405,Innerbrokløysa,68.63045,15.482067,-0.098154326,0.012140197,0.155810557
11410,Litleøya,68.611664,15.381083,-0.088696594,-0.073971605,0.160807023
11413,Sandan Sø,68.88583,15.314567,-0.15008893,-0.053643047,0.064300185
11414,Toften,68.86898,15.30105,-0.103084627,-0.236952367,-0.168330688
11433,Finnvika S,69.50228,17.919933,-0.108606255,-0.141087067,-0.167270631
11435,Bryggelandsholmane,59.428783,5.09895,0.105060394,-0.08163132,-0.058333111
11438,Lauplandsholmen,59.179733,5.472633,-0.249293846,-0.356154965,-0.215574339
11486,Stokkavik,59.7604,5.341183,0.36198578,0.27388868,-0.048163247
11488,Brattavika,60.044117,5.303317,0.197087704,-0.066171149,-0.258109391
11492,Storevikholmen,59.83808,5.30565,0.106452535,-0.057497305,0.064935567
11511,Hattasteinen,59.627968,5.252483,-0.024800642,-0.200585813,-0.218360913
11513,Andal,59.636482,5.247117,-0.180224396,-0.283868093,-0.093910024
11525,Stille S,60.081635,5.144183,0.014318549,0.274361687,0.221027664
11530,Gissøysundet S,59.623585,5.160067,0.078245353,0.08716113,-0.0704237
11533,Usholmsvika,60.1749,5.0917,-0.026629709,0.163206108,0.067973929
11534,Klungsholmen,59.596783,5.161567,-0.028242996,-0.007289876,-0.184728396
11543,Buholmen,60.020466,5.080083,0.010116606,-0.049892694,0.016013991
11552,Stuholmen,60.249516,4.978467,0.015840133,-0.026824215,-0.009951298
11556,Engevik,59.96425,5.379817,0.415873684,0.437029828,0.760254129
11559,Grimsholmen,59.65735,5.404167,0.037462934,-0.109108161,-0.197032199
11571,Holevik,59.776566,5.32265,0.072383295,0.106196301,0.090790942
11574,Breivik S,59.671185,5.31215,-0.071915881,-0.065078639,-0.240778173
11575,Koløy N,59.8616,5.288267,0.123754448,0.11759965,-0.075394235
11596,Ståløy,60.088615,5.1734,-0.360456124,-0.512228778,0.461915461
11605,Soløy Ø,59.90715,5.159333,0.071166974,0.110288999,-0.106565068
11611,Naveide,60.1386,5.110533,0.098845727,-0.032985406,-0.098207386
11633,Krossholmen,59.7879,5.100533,0.031211298,-0.079821915,-0.190756929
11640,Skorpeosen,60.332466,4.9421,0.06113776,0.032698154,-0.153842463
11643,Hatlem Ø,61.200916,5.262117,0.001957295,-0.020713403,0.000501718
11644,Duesund,60.807835,5.2946,0.058130862,-0.152569965,-0.209869737
11649,Stolane,60.60465,5.126483,-0.050630185,-0.156212159,-0.140622195
11651,Ramsøy S,60.432617,5.061917,-0.044838808,-0.226342656,-0.252022106
11652,Kjeppevikholmen,60.543617,5.035133,-0.186307506,-0.185714728,-0.245037376
11657,Gråvika,60.863083,4.935283,-0.034569597,-0.134143383,-0.0258153
11665,Jibbersholmane,60.752533,4.884617,0.066839997,0.017880732,-0.051638292
11667,Gardskråneset,60.5399,4.904617,-7.93E-05,-0.014024416,-0.186796611
11677,Øyjordsvika,60.537384,5.3434,0.251844501,0.037527186,0.057165116
11684,Djupevika I,60.9683,5.16585,0.05932267,0.011434913,0.042764813
11687,Ramsvik,60.578133,5.190433,0.043711671,-0.02112505,-0.127918415
11688,Portevika,61.190666,5.081683,0.027705511,-0.065177015,-0.204331632
11689,Kjerringneset,60.960217,5.107183,-0.05364022,-0.245308113,-0.2037992
11690,Grasholmen,60.595768,5.159717,0.108625901,0.061122863,-0.027359668
11700,Storeneset,60.8763,5.02805,0.114503774,-0.063256881,0.037623046
11714,Kvernhusvika,61.0675,4.94345,-0.012060471,-0.049847581,-0.163956127
11719,Kråkenes,61.05835,4.9203,0.001093229,-0.24736473,-0.396961334
11721,Bukkeholmen,61.098267,4.90485,0.034018907,-0.141629155,-0.145215026
11728,Vatnøy,60.965267,4.907533,0.041831659,0.246428188,0.3402004
11736,Fureholmen S,61.056084,4.867017,0.120351615,0.00582726,-0.13710292
11737,Skorpa,60.944233,4.882817,0.089785799,0.048006808,0.014989137
11738,Otterholmen,60.686417,4.908683,0.148169335,0.001593614,-0.183111196
11740,Haverøy,60.404766,4.93995,-0.026295517,-0.198470192,-0.323842947
11749,Bårøy,60.945866,4.845383,-0.052933117,-0.19929389,0.00752091
11754,Bøøy,60.727882,4.8641,0.111833686,-0.033116367,-0.125952851
11756,Allersholmen,60.774868,4.853533,0.05762649,0.000807537,-0.113449489
11758,Sauøy,60.59395,4.86125,0.029595481,-0.131442749,-0.260480963
11763,Knappen,60.5735,4.818517,-0.09194742,-0.085490228,-0.214581422
11767,Langøy,61.04395,4.724283,0.054721781,0.039598231,-0.04353899
11770,Rotøy,60.68285,4.759833,0.275759347,0.205218955,0.094879629
11771,Grisholmsundet,60.792633,4.6925,-0.276067343,-0.391703261,-0.341081244
11772,Moldøyosen,60.789635,4.70075,-0.272295065,-0.330751089,-0.269618711
11775,Kviteskjeret,61.467815,5.2203,0.2710828,0.156458852,-0.168255825
11776,Sveholmane,61.557716,5.215333,0.203220929,0.140191501,-0.136214384
11783,Hella,61.40663,5.080817,-0.041933548,-0.256053097,-0.480273594
11786,Høyvika,61.37475,4.965133,-0.202081725,-0.294466649,-0.374889847
11791,Langeråa,61.63405,4.86525,-0.202738066,-0.297964023,-0.301746832
11793,Ånnaholmane,61.2843,4.7254,0.011446011,-0.034464865,-0.11237333
11800,Austneståa,61.490818,5.171167,-0.02686901,0.023306955,-0.071157
11803,Kyravika,61.31722,5.160283,-0.107145975,-0.252443908,-0.127496738
11807,Marøytåa,61.50675,5.118367,0.204224433,0.09511931,-0.016276433
11809,Krabbestig,61.894566,5.0616,-0.038705664,-0.290969913,-0.294921782
11813,Svinøy V,61.30475,5.101317,0.129311246,-0.00559424,-0.171148871
11814,Furevika,61.305668,5.071783,0.167004844,-0.125013065,-0.111498529
11833,Flåtegrunnen,61.57565,4.80805,-0.040223564,-0.17923905,-0.281261729
11854,Pinnen,58.221966,6.68495,0.094761638,-0.066458381,-0.050118064
11856,Salvågvika,58.227165,6.632767,0.117799087,0.080832118,-0.026125691
11857,Buksevika,58.2079,6.636067,0.182162013,0.150705014,0.121764839
11858,Støytland,58.2316,6.628533,-0.008168534,0.14145876,0.027647474
11861,Skipningsdalen,58.24148,6.5958,0.185045399,0.169080125,0.048557666
11864,Napp,58.249035,6.536783,0.165360376,0.165100977,-0.036205409
11888,Sandvik,59.31445,6.170917,0.020922727,-0.063018884,-0.149591535
11893,Fosså,59.2699,6.14295,0.023424424,-0.016540379,-0.017938805
11907,Gråtnes,58.87195,6.123217,-0.082889138,-0.122006869,-0.075012899
11908,Oltesvik,58.85533,6.125717,0.040685009,0.086908496,0.01406134
11913,Kjeahola,59.2933,6.0729,0.091101522,-0.107849299,-0.201515632
11920,Herøy,59.46635,6.0258,-0.074768408,-0.248774886,-0.285951552
11922,Oanes Sjø,58.910084,6.079483,-0.006516658,-0.134271768,-0.146265212
11925,Vintraviki,59.399384,6.020533,0.018500871,-0.122646119,-0.222144926
11928,Langavika,59.230766,6.004483,0.017122294,-0.014739096,0.108491069
11930,Bjelkavik,59.45165,5.991917,0.239216022,-0.186795258,-0.303026348
11939,Smal Skar,59.2051,5.966083,-0.147251602,-0.241239991,-0.174503824
11957,Indre Slettavikneset,58.954132,5.947817,0.110562592,0.085910526,-0.091065468
11964,Ringja,59.405468,5.8631,0.053261913,-0.1414357,-0.186871674
11966,Skigelstrand,59.494118,5.846567,0.118211787,-0.146266169,-0.101749395
11971,Store Teistholmen Ø,58.977768,5.867,0.08540134,0.122734517,-0.128583905
11972,Prestholmane,59.117016,5.852033,0.112106213,-0.036331149,-0.07853816
12003,Rossholmen N,59.06428,5.722617,0.195925544,0.183934833,0.041698792
12007,Dale II,59.08215,5.71055,0.04921343,0.10070804,-0.124813821
12011,Håøya Nø,59.290417,5.6765,-0.174332743,-0.209509454,-0.397675878
12018,Rossholmen,60.394684,6.274833,0.002944481,-0.001959532,-0.062691532
12019,Saltkjelen II,60.248016,6.2014,-0.127678508,-0.245539388,-0.252317872
12022,Ljonesbjørgene,60.2564,6.16585,-0.236172622,-0.225961935,-0.286886095
12033,Dysvik,60.191017,5.967617,-0.215231137,-0.110762817,-0.242247914
12035,Hondskår,60.109,5.9405,-0.152467264,-0.083783341,-0.302739674
12036,Hisdalen,60.126118,5.9305,-0.184500012,-0.181184973,-0.338846758
12040,Brandaskuta,59.975735,5.909183,-0.137571162,-0.135048409,-0.164663987
12047,Mjåneset,60.177216,5.72195,0.151006163,-0.017594913,-0.134090217
12048,Skiftesneset N,60.07472,5.736783,0.153958543,-0.060074793,-0.32407491
12066,,,,0.213501318,-0.265814529,-0.45938177
12067,Aldalen,60.24995,5.571917,0.200331096,0.090795615,-0.114677442
12071,Ommundsteigen,59.55078,6.5131,-0.134535542,-0.19405003,-0.174106446
12074,Svåsandneset,60.32422,6.318983,-0.074843676,-0.059136588,-0.041777532
12077,Tveitnesvik,60.10592,6.20525,0.300967149,0.155735523,-0.019789636
12078,Gangdal,60.2165,6.15785,-0.019613965,-0.092013049,-0.26966485
12081,Straumneset,60.221333,6.140133,-0.134312052,-0.090762434,-0.166884188
12085,Aplavika,60.258583,6.055517,-0.149170823,-0.056792994,-0.170656678
12086,Alsåkervik,59.759518,6.072883,-0.107253919,-0.000483315,-0.115710243
12095,Bergadalen,60.1216,5.908883,-0.138655975,-0.220212134,-0.361476886
12107,Molnes,59.719917,5.857983,-0.012958325,-0.135165718,-0.276011062
12108,Skorpo Nv,59.95323,5.827133,-0.019383556,-0.145394179,-0.116719336
12109,Ebne,59.71443,5.8238,0.12478658,-0.152852939,-0.239715802
12114,Torsneset,59.5182,5.819867,0.08635163,-0.194042601,0.023552038
12115,Ilsvåg,59.517033,5.81015,-0.321308405,-0.319129993,-0.247736189
12126,Rossnes,59.759167,5.721467,-0.054142077,-0.150079283,-0.207920764
12127,Mælen,59.69998,5.723617,0.080401175,-0.076818824,-0.318336703
12128,Dyrnes,59.71765,5.72205,-0.174414589,-0.321597383,-0.41703994
12134,Maradalen,59.762115,5.687317,0.102993446,-0.066606161,-0.283212924
12154,Smørdalen,60.868183,5.551717,-0.151859865,-0.307023121,-0.300890604
12156,Blom,60.436516,5.56465,-0.153115517,-0.114003554,-0.169915949
12178,Bjønnspjotneset,61.098083,5.82545,0.021134567,-0.082953493,-0.155373075
12179,Oslandsurda,61.079166,5.809717,0.069389346,-0.013613987,-0.115722242
12192,Skorva,61.467117,5.3136,0.227395541,0.082360934,0.069755734
12209,Rønstad,62.135117,6.021433,0.172650784,0.075374373,-0.043211406
12212,Lindeneset,61.80282,5.979733,-0.39476105,-0.449910812,-0.491306384
12213,Kvangardsnes,62.145317,5.94545,0.134100545,0.275329973,0.124719176
12215,Kleppeneset,61.785934,5.977233,-0.307297257,-0.324946031,-0.287475221
12224,Isane,61.87715,5.723383,-0.155725578,-0.266733058,-0.203790581
12236,Endal Ø,61.9076,5.493317,-0.039519533,-0.217728521,-0.222412444
12237,Brudevika,62.116566,5.420717,0.070015074,0.084794785,-0.06118357
12239,Kråknes,62.83185,6.9624,0.167230017,-0.086515596,-0.262131802
12244,Setevika,62.728065,6.939283,0.042830116,0.028083894,-0.070570627
12260,Juvika,62.66477,6.696767,0.276834754,0.391003531,0.250141028
12265,Gudmundset,62.45375,6.601283,-0.09248568,-0.242603146,-0.205381846
12268,Terningen,62.6431,6.54805,0.227703409,0.266946595,0.094610615
12281,Rogne,62.66965,6.356833,0.144713642,0.124835269,0.024062834
12294,Kjerstad,62.622566,6.22535,0.187080906,0.087508771,0.13108901
12298,Røysa,62.54865,6.1417,0.011708509,0.030167206,0.039841945
12308,Bjørndal,62.274883,6.00285,0.094831359,0.222397937,0.160988761
12348,Kåholmen,63.617184,8.994133,0.249102837,0.270259358,0.207561468
12357,Aursøysva,63.801968,8.910767,0.23074089,0.538509731,0.367675006
12361,Bukkholmen S,63.72378,8.8621,0.22988717,0.314869955,0.158369917
12366,Raskjæret,63.793617,8.854567,0.22309205,0.355388373,0.21243663
12370,Måøydraga,63.676434,8.757283,0.30355324,0.390625057,0.434845339
12380,Langøya Kvaløya,63.791515,8.6066,0.146894719,0.253543965,0.303417342
12383,Omsøyholman,63.631966,8.575567,0.166736263,0.230560497,0.266305939
12385,Lyngvær Ø II,63.80621,8.567418,0.204966147,0.255870582,0.186034961
12392,Lille Torsøy,63.60615,8.492133,0.137219868,0.119373806,0.107697739
12394,Ørnøya,63.761868,8.445183,0.08724506,0.285394628,0.262863204
12406,Rauodden,63.66453,8.884083,0.1819882,0.35373991,0.240599886
12407,Flesa,63.64485,8.879067,0.266912154,0.34913873,0.253474198
12435,Grøttingsøy,63.879467,8.543083,0.242733346,0.259189606,0.1880285
12449,Tennøya,63.805035,8.4444,0.284663585,0.314928553,0.188160759
12466,Brettingen,63.3582,8.237267,0.186813949,0.204728103,0.079547461
12476,Kråka Nø,63.476818,8.060967,-0.063086629,0.153621901,0.305689969
12483,Hjortholman,63.458965,7.852167,0.223821305,0.342226642,0.133863201
12574,Edøya,64.802666,10.9777,-0.286891319,0.061363071,0.123868927
12590,Helligholmen,64.83839,10.665517,0.273597374,0.217630357,0.154505586
12594,Breidvika,64.295364,10.397483,0.081834095,0.165878469,0.211985733
12599,Indre Skjervøy,64.2858,10.30905,0.105866115,0.174231091,0.228868006
12624,Feøyvika,64.56032,10.919133,0.098036875,0.095789025,0.0753219
12625,Bjørgan,64.59268,10.908333,0.166690875,0.059244815,0.000423012
12633,Lyrnesset,64.5256,10.748133,0.086387242,0.034938089,0.092352674
12652,Kråkøya,65.003784,11.042367,0.084416002,0.146856674,0.142296121
12659,Digerneset,64.78657,11.727917,-0.282599274,-0.200522813,-0.563666603
12660,Kipholmen,64.79403,11.690367,-0.193707419,-0.243322939,-0.269698894
12662,Ternskjæret II,64.77713,11.639767,0.112069306,0.023118476,0.060634168
12678,Vedøya,64.60743,11.354817,-0.046058904,0.000172148,0.074021338
12695,Selvågen,64.90822,11.844233,-0.140612957,-0.045059639,-0.055051863
12701,Lekafjorden,65.07068,11.724255,0.473063393,0.628793626,0.40818847
12705,Skrosen,65.122986,11.674517,0.173584761,0.192083371,0.252480578
12708,Haugsflesa,65.04608,11.633522,0.599688481,0.464481906,0.582276752
12712,Slokkholmen Ø,65.03989,11.4847,0.17642729,0.221537013,0.267317909
12714,Gjerdinga,64.9464,11.4623,-0.238162883,0.108391946,0.080174526
12723,Gullholmen,65.01716,11.724247,0.285110637,0.267595858,0.344315925
12727,Kvitneset,64.968025,11.665157,0.127885834,0.138603895,0.191686455
12730,Båfjorden,64.94988,11.5733,0.363306345,0.164328176,0.030565304
12784,Ringholmen,63.56,9.41005,0.239538654,0.322302452,0.156385233
12789,Gunnarøya,63.569485,9.467983,0.090853989,0.30233898,0.100297651
12794,Rundklumpen,63.801315,9.607583,0.152296251,0.212770774,0.158786919
12800,Flatøya,63.901875,9.843085,0.775984151,0.718098176,0.655595715
12802,Veddersholmen,63.899067,9.870933,0.392437169,0.735711589,0.616307557
12832,Risholmen,58.143982,8.26705,0.171742314,0.040271666,-0.019537948
12839,Vindsnes,62.28533,7.2802,-0.011758343,-0.130373989,-0.157629575
12844,Seterneset,62.67393,7.31415,-0.057751509,0.046794069,0.186382098
12855,Kornstad,62.960384,7.45015,0.112697014,0.09639092,0.117724964
12867,Rokset,62.97375,7.646183,-0.285531591,-0.453601442,-0.249240939
12870,Leite,63.035767,7.677383,0.116749903,0.127926849,0.089459665
12871,Hogsnes,63.093033,7.675883,0.217083118,0.215165483,0.016916605
12872,Kattholmen,63.055332,7.695317,0.086157524,0.070726599,-0.025090552
12879,Endreset,63.029682,7.713733,0.17211539,0.133736757,0.114273951
12884,Sandnesbukta,62.737415,7.878516,-0.145004565,-0.157417288,-0.161529029
12885,,,,0.06944859,-0.04510943,-0.1038831
12890,Høybuvika,62.95717,8.049167,0.005628334,-0.027551237,-0.016693714
12891,Gagnat,62.93255,8.0981,0.105699261,0.113581871,-0.339782842
12892,Sjølsvik,62.9066,8.11095,0.036578863,-0.12183579,-0.06717853
12895,Halsbukta,63.077866,8.143283,0.054894827,-0.000755988,-0.087727955
12896,Hegerbergtrøa,62.883934,8.149917,0.024216573,-0.034262207,0.065831383
12897,Honnhammarvika,62.863365,8.157583,-0.009943476,0.007510346,-0.011032925
12904,Merraberget,62.7838,8.27825,-0.019293043,0.034772838,0.093713773
12965,Stølsvik,59.405434,5.710833,0.028698292,-0.227052422,-0.322019247
12966,Lindvik,59.474068,5.976433,-0.01132194,-0.18053341,-0.245477901
12973,Saltkjelen I,60.31815,6.183183,-0.16836945,-0.266672852,-0.29186705
12978,Lyngholmen,61.016933,5.007033,0.122932529,0.046665444,-0.003548535
12980,Klubben,61.17955,5.00315,-0.047041226,-0.200562616,-0.212284497
12982,Aldeøyna,61.31055,4.767783,0.132990291,-0.190590205,-0.298328457
12988,Aukrasanden,62.783417,6.92605,0.140093334,0.048612639,-0.10490778
12993,Lamøya,63.73305,8.854983,0.182566086,0.284267234,0.146232996
13000,Slåttvika,65.52393,12.545017,-0.183662268,-0.187666471,-0.036951293
13006,Hestholmen N,67.14678,14.016533,-0.130976286,0.031499472,0.353649723
13020,Nygård,60.358067,5.683283,-0.060529663,-0.094837193,-0.001447626
13021,Gaustad,62.9831,7.328267,-0.096239078,-0.062504765,-0.00179114
13032,Sølvøyane,59.609516,5.133367,0.128425528,-0.071673443,-0.131956728
13035,Sauaneset I,60.088516,5.266183,-0.136169195,-0.21428353,-0.375083546
13036,Gjengane,60.070934,5.305417,-0.054051957,-0.120094774,-0.034797783
13047,Våtvika,68.227684,14.805217,0.056064631,0.066002182,0.145306496
13055,Langøyna Ø,59.2983,5.713333,-0.173999647,-0.285054654,-0.355823178
13057,Teigland I,60.17935,5.959917,-0.214828701,-0.185030592,-0.267832407
13058,Fusavika,60.207733,5.613583,-0.112159122,-0.170048881,-0.254735941
13105,Bukalholmane Ø,66.10757,12.177017,0.435097095,0.44116814,0.398153899
13119,Hesten,70.23807,23.40735,-0.007522944,0.025110171,-0.130310092
13124,Storstrompan,66.54552,13.41915,-0.02160107,-0.027103109,0.026057664
13125,Storvika,66.80845,13.24255,0.178074627,0.205873849,0.223761957
13139,Martnesvika,67.76705,15.580867,0.355810903,0.336952828,0.219841918
13143,Bondejorda,70.81695,27.563717,-0.125049491,-0.053780984,0.06970988
13196,Syltøy,60.3046,4.96645,0.029891357,-0.029857833,-0.122638299
13205,Brattholmen,61.068382,4.713817,-0.086835239,-0.262175096,-0.208046783
13209,Bognøy,60.604416,5.075833,0.217184505,0.028405064,-0.070714969
13220,Kalhag,58.974716,5.93595,-0.046471927,-0.106770201,-0.148455931
13221,Nautvik,59.183483,5.94915,-0.221362561,-0.113511966,-0.167646539
13222,Kunes,59.21137,5.9532,-0.064055338,-0.165636433,-0.116703604
13225,Kilaneset,59.31335,6.2672,0.070473062,-0.089838803,-0.213060005
13226,Vindsvik,59.299816,6.322467,0.03625081,-0.094660308,-0.115841991
13227,Altaneset,60.248016,5.633883,-0.167839006,-0.311365896,-0.276751902
13229,Djupedalen,60.2308,5.673117,0.206476356,0.090106166,0.063848665
13231,Høylandssund,59.77755,5.8298,0.116696012,-0.107866981,-0.313592158
13234,Kysnes,60.1993,6.095417,-0.192264466,-0.153389709,-0.212735876
13235,,,,-0.101941788,-0.245213944,-0.22172487
13236,Indre Oppedal,61.067883,5.563833,0.037202634,-0.105023612,-0.18787245
13241,Endal Vest,61.909832,5.464267,0.03669154,-0.016376087,-0.207505825
13242,Juvika B,61.895683,5.6331,-0.094119454,-0.214955136,-0.240826474
13243,Sandvika,62.195667,5.904417,0.191866178,0.149008596,0.030227278
13246,Voldnes,62.2097,5.7849,0.214757279,0.155422774,-0.018428022
13249,Sagelva,62.33795,6.3815,0.154663295,0.040459374,-0.045753311
13254,,,,0.055928065,0.080060043,0.062923912
13271,Almurden,64.43353,10.678883,0.208782338,0.239870549,0.178820715
13279,Kilvågen Y,65.70821,12.588817,-0.198948267,-0.242329856,-0.189458821
13284,Sjølyst,66.11311,12.487683,0.086946252,0.298754116,0.186544862
13290,Stigvika,67.06895,14.076583,-0.026738512,0.017989882,0.131244094
13291,Soløya,68.00445,13.18255,0.133511796,0.20230013,0.093185311
13293,Molgavlen,68.30537,14.949933,-0.161664854,0.014469827,-0.021216702
13296,Sandnes Ø,68.582535,14.941883,0.038095062,0.021372836,0.133842163
13297,Kines,67.448814,15.487967,0.114687038,0.105019873,0.038553994
13305,Barbogen,69.36812,17.0281,0.031312455,0.056584591,0.061826047
13306,Ystevika,68.69432,17.05325,-0.02692969,0.111168876,0.13868011
13316,Storvik,70.14955,22.41675,-0.07962888,0.050150449,0.055548991
13317,Lille Kvalfjord,70.30338,22.937983,0.045200017,0.144842584,0.147413712
13337,Hovdenakken,70.81805,27.49395,0.222178977,0.125239572,0.234628664
13339,Klungervikneset,59.74687,5.3433,0.177578785,0.036075852,-0.194096763
13340,Leiholmane,60.980633,4.87435,0.040015941,-0.107128683,-0.147659363
13341,Bakjestranda,61.82025,4.940267,0.162827421,-0.085842485,-0.264534381
13345,Oterstegdalen,60.23545,5.638267,-0.142478797,-0.276059294,-0.248745504
13412,Dypeidet,68.829384,14.776167,0.047347053,0.10949644,0.051894682
13491,Bringberget,63.355484,9.133583,-0.449852214,-0.396910507,-0.108681431
13503,Heggvika,63.610733,9.0523,0.17918961,0.250159408,0.233521576
13518,Angstauren,69.695335,18.170267,-0.204057383,-0.143659303,0.117956129
13522,Valvika,66.29887,12.813833,-0.384269803,0.265776677,0.203776189
13527,Finnkjerka,68.33945,15.0358,-0.138768528,-0.144633797,0.042824044
13530,Sjåneset,68.903534,15.037333,-0.064882118,-0.006400509,-0.002614326
13531,Skogshamn,69.09302,17.512568,0.055486515,0.193476622,0.250771988
13541,Midtflua,60.076633,5.467067,0.150003767,-0.030326032,-0.346974666
13547,Grønebrekkane,60.47215,5.455817,-0.062460235,-0.231020547,-0.288226431
13549,Løypingneset,61.82007,5.247533,0.085465713,-0.063005793,-0.178929836
13550,Marøy Nø,61.847935,5.295383,0.026964147,-0.030299133,-0.153369776
13554,Overåneset,62.294285,7.12155,-0.063270955,-0.178418557,-0.255985142
13562,Uføro,59.87835,5.526917,0.063638078,-0.017410711,-0.155335268
13563,Angelskår,60.523335,5.352617,0.027299545,-0.13123229,-0.195961466
13565,Øvreås,60.67298,5.397417,0.427631572,0.316523627,-0.339661404
13566,Storskrebukti,60.653732,5.4192,0.088976329,-0.128076298,-0.367385374
13567,Knappen Solheim,60.8852,5.462083,-0.11055517,-0.193903328,-0.214083441
13568,Storevik,61.47627,5.285,0.006323448,-0.227274603,-0.242523977
13570,Ulværholmen,63.598217,9.116583,0.170977296,0.33312738,0.190814017
13572,Badstuvika,63.53398,9.1469,0.168164182,0.346706273,0.24524028
13573,Kistvika,63.384,9.171467,0.210062394,0.377930095,0.201414963
13581,Ramstadholmen,64.754814,11.246033,-0.014854433,0.115411453,0.201209786
13592,Hammer,67.95877,15.171667,0.009468934,0.109903627,0.163640835
13593,Storfjell,68.32518,15.2023,0.116972777,0.042623137,0.008555715
13594,Trolløya Sv,68.704,15.016667,0.076671426,-0.042754767,-0.078674417
13595,Kuneset,68.7135,15.038667,0.097652759,-0.017921315,0.052177994
13597,Salangslia,68.85463,17.520884,-0.145035516,-0.324765908,-0.003647242
13612,Rundreimstranda,62.01035,5.3303,0.151616079,0.037396943,-0.086849483
13629,Munkholmen,59.285484,5.631317,-0.133973429,-0.231221171,-0.302016846
13643,Hjartholm,61.03512,5.33105,0.016191763,-0.107718685,-0.072541688
13644,Tepstad,60.5549,5.381767,-0.047716116,-0.253894983,-0.367582361
13652,Viknabukta,60.441284,5.508933,0.230923981,-0.127279466,-0.376365639
13669,Furneset,62.6461,7.101183,-0.075050389,-0.027519432,-0.059104544
13677,Trøan Bjørklibukta,63.33155,9.1231,0.054274153,0.208266583,0.114549365
13691,Oterfjorden,69.9099,29.680717,-0.21731341,0.118442879,-0.104098242
13699,Leirvika,60.7411,5.342433,0.177897961,0.072546424,-0.078835867
13704,Vikane,60.7125,5.403633,-0.01356071,-0.105329358,-0.30406978
13706,Seljeset,61.5771,5.237383,-0.036577362,-0.150324047,-0.253706217
13708,Steinvik,61.565266,5.31025,0.115898465,0.03085273,-0.181473251
13711,Dyvika,61.479282,5.375283,-0.14762144,-0.341882499,-0.174681707
13727,Svellungen,63.655785,9.15525,0.216571742,0.265422466,0.127464227
13748,Saltkjelvika,64.59887,11.2662,0.094273579,-0.00367557,-0.110496032
13764,Kokvika,66.4129,12.957383,0.222878154,0.267642756,0.203032571
13765,Breiviken,66.46165,12.958033,0.261482938,0.330154273,0.390446132
13782,Helgeneshamn,68.491585,15.2339,0.094714456,0.095949164,0.104815673
13783,Jurneset,68.89767,15.0063,-0.550362571,0.00281135,0.260852742
13784,Høydalsvika,68.93663,15.020717,-0.126314213,-0.034123407,0.109176683
13786,Pollneset,68.71255,15.11255,-0.032241607,0.042965303,-0.09999204
13792,Kvalvika I,69.4776,17.564167,0.120363178,0.046277256,0.10762849
13804,Rogndalen,69.787964,18.6531,-0.20216267,-0.161942155,0.007736297
13813,Kvitelv,70.629166,27.123318,-0.07414441,-0.030171677,0.099297963
13831,Kvamme,60.518333,5.3811,0.022803882,-0.054452571,-0.085529857
13837,Verpeide,61.902218,5.209233,0.000472451,-0.289372846,-0.345988533
13838,Hegnes,61.356335,5.284667,-0.1330991,-0.240501054,-0.104556136
13841,Brunsvik,61.910183,5.29085,-0.072082607,-0.325719883,-0.338405582
13845,Beitveit,62.140835,5.3275,0.173140384,0.046407772,-0.072540304
13852,Gjermundnes,62.6275,7.192817,0.040212985,0.034289956,0.01502154
13865,Spergittklubben,69.7948,30.395617,-0.213753486,-0.250662513,0.036710856
13867,Raunevågen,59.65798,5.533667,0.168312903,0.049432294,-0.113426996
13870,Eikebærånæ,60.563232,5.3535,-0.364962193,-0.342548444,-0.301264488
13872,Bergsvik,60.86295,5.3474,0.04899751,-0.102370886,-0.103661905
13873,Barlingebotten,60.863083,5.364017,0.004766623,-0.174636264,-0.285985944
13874,Fyllingsnes S,60.5821,5.4001,-0.372264039,-0.385740087,-0.283151597
13876,Litletveitholane,60.479782,5.443633,-0.176249389,-0.180429159,-0.151329399
13886,Hallarøy V,63.99758,9.1299,0.214440458,0.240418824,0.217764988
13887,Reitholmen,63.617184,9.1311,0.18659994,0.284432507,0.227609276
13888,Osholmen,63.661983,9.135583,0.078568172,0.089241457,0.157902496
13892,Strandabukta,63.54346,9.162297,0.30630374,0.122030264,0.138293625
13931,Hjartøy Ø,67.65652,15.121867,0.100709582,0.060712655,0.267296484
13936,Sørvika,68.47335,15.222633,0.360805872,0.33556187,0.268243413
13944,Storvika IV,69.005936,17.50165,-0.586169812,-0.196181915,0.265936742
13949,Hagebergan,69.97912,21.027184,-0.198345047,-0.173776985,-0.218186955
13959,Oterholmen,64.81578,11.2208,0.132480556,0.118646483,-0.361290632
13965,Nesbø Gjeldsvik,60.68835,5.4232,0.019895303,-0.070869147,-0.272844619
13996,Hamnefjord,70.56623,23.024616,-0.161744914,-0.102697091,-0.068576825
14016,Auenes,58.140266,8.2553,0.011246777,-0.117817059,-0.140264964
14018,Toska S,60.627434,5.004367,-0.124740969,-0.12910328,-0.248057969
14019,Øksningen,65.13924,12.31975,-0.022503697,0.088552521,0.160464493
14035,Guleskjeret,61.041134,4.79225,0.166130493,-0.23472672,-0.41319891
14039,Litle Lunnøy,60.02005,5.169533,-0.085659598,-0.034686876,-0.197641093
14040,Krigsholmen,60.081383,5.124117,0.046453775,0.047586921,0.002140113
14041,Edøya,63.65835,8.694417,0.187655922,0.283590392,0.316854011
14042,Kattholmen,63.870968,8.679017,0.214412105,0.281602396,0.345216556
14043,Lybergsvika,62.64515,7.450533,-0.102870743,-0.17874715,-0.114253475
14076,Lismåsøy,65.4933,12.169217,0.141966402,0.171028401,0.132224806
14081,Tveit,61.110085,5.340483,0.078943501,-0.135015457,-0.221795901
14086,Lelandsholmen,59.72855,5.152383,0.221622167,0.257407409,-0.081708847
14136,Hestholmen Ø,59.0585,5.445083,-0.082722033,-0.089639454,-0.186866518
14245,Jakobsteinsvika,65.11235,11.792967,0.120084729,0.041777274,0.080916838
14435,Ljøsøy N,60.565132,4.878417,0.093363221,0.055207989,-0.179854322
14495,Nordeimsøyna,59.28955,5.811533,-0.162497432,-0.164291258,-0.293499192
14676,Slapøya N,66.15808,12.38975,0.290761037,0.235565764,0.167490202
14678,Uvåg,68.65971,14.6805,-0.039369114,-0.063206361,-0.068976278
14679,Hellfjorden,68.668365,14.8005,0.20199879,0.050218455,0.057395678
14795,Rinøyvåg Ø,68.3779,15.767883,0.001528466,0.016554395,0.081867311
14796,Fiskefjorden,68.525635,16.123667,0.001324451,0.127392552,0.248856441
14799,Djupestallen,60.058968,5.452733,0.24306727,-0.014885003,-0.40146712
14882,Horjona,60.270782,6.187033,-0.545156263,-0.35433628,-0.176070865
15118,Kalvøya,66.39365,12.79975,0.053212533,0.111007779,0.209029983
15196,Aga Ø,59.845917,5.26075,-0.049079738,0.084114562,-0.056708538
15236,Skulgambukt,69.78865,19.161016,0.119049631,0.260845625,0.181514128
15375,Sørøyflesa,63.98405,9.057067,0.182898091,0.154808341,0.177247466
15403,Olderøy,61.10195,4.711383,-0.046392139,-0.30416659,-0.347375975
15455,Daumannsvika,67.17682,15.411533,-0.003395834,-0.071489915,0.045339487
15456,Søreide,61.1056,5.8536,0.024211951,-0.1405462,-0.247184185
15460,Laholmen,70.89355,25.55705,-0.136916992,-0.055292987,-0.031962018
15461,Storvika,70.87123,25.446318,-0.059677822,0.029151722,0.155776123
15462,Sarnes,70.98,25.747833,0.115538748,0.183712163,0.164279725
15516,Mårøyfjord,70.737236,27.317183,-0.008429745,0.105745612,0.230866657
15517,Tinnlandet,70.52875,23.229168,-0.069801354,-0.009049615,0.086358613
15621,Breivika,66.58036,13.015637,0.039299651,0.356191945,0.085523743
15655,Hjartøy N,66.23579,12.709967,-0.029056402,0.164856691,0.168957834
15657,Kågen,69.94662,20.752768,-0.283499216,-0.285614454,-0.146153067
15659,Nøklan,69.907684,21.8331,0.226515311,0.190900648,0.061088543
15796,Borgarliflot,59.3892,5.924733,-0.086321718,-0.208424653,-0.30073738
15860,Kvenbukta V,69.23299,17.089417,-0.014292718,0.006365247,0.13316798
15956,Storbukt,69.914665,29.487076,-0.239748905,-0.180614429,-0.097231519
15957,Latvika,70.0645,29.0347,0.042733378,0.027363162,0.037631057
16015,Russelva,69.88975,20.769016,-0.032550262,-0.052228372,-0.126026009
16055,Kråkeberget,70.83325,25.254333,-0.022186475,0.043888445,-0.019372082
16165,Tårnvika,67.57312,15.1288,-0.23597183,-0.040394448,0.027498352
16216,Lønskog,68.863,15.087283,-0.089751613,-0.079340808,0.082948026
16255,Skarvfjell,69.73117,30.415333,-0.008395345,0.003732702,0.162595482
16736,Kåvika,69.95783,20.69315,-0.175507232,-0.197095104,-0.092412992
16755,Hageberg,59.944218,5.434733,0.097034527,-0.170370096,-0.241678949
16939,Fornes,68.410484,15.435433,0.000643681,0.129944721,0.210548619
17015,Seglberget,59.730434,5.788733,-0.166378534,-0.229637861,-0.294175503
17077,Trettevik,69.51185,18.022034,-0.103564021,-0.00574034,0.241132713
17176,Holandselv,68.699,15.979433,-0.178043418,-0.232510972,0.207744502
17177,Grunneneset,61.89445,5.34815,0.064152545,-0.269992105,-0.273548759
17235,Ørnes,66.42087,13.018317,0.303504456,0.314205229,0.368368416
17357,Rennaren,59.13252,5.721883,-0.109321939,-0.1546234,-0.195911611
17495,Vullum,63.04965,8.2162,-0.047617383,-0.191451912,-0.209088043
17575,Tollaksholmen,59.251984,5.3895,-0.13511043,-0.102150924,-0.208152684
17595,Vassvika,69.10623,17.280283,0.291632368,0.344443534,0.071873869
18015,Hestabyneset,59.953632,5.4514,0.124382185,-0.104847814,-0.255136259
18117,Vassvika,70.27378,21.685083,-0.011897528,0.034295421,0.090105624
18217,Kvaløy Ø,59.396633,5.171083,-0.069660026,0.110233246,-0.02758894
18235,Bastli,59.2694,6.193083,0.064524593,-0.076194443,-0.027897519
18275,Kjeringå,59.19203,5.870017,-0.231770355,-0.316080492,-0.232238497
18639,Halsavika,59.39232,5.883333,-0.047824369,-0.203003948,-0.196275398
18657,Skredstivik,61.15495,5.133333,0.025368478,-0.093257668,-0.154688046
18717,Hammarvika,67.132286,14.313183,0.092290802,0.179593617,0.257955376
18755,Klungset,64.74997,11.394183,0.160633033,0.134958799,0.054196662
18898,Skaftå,60.458084,5.631333,-0.10278623,-0.14316697,-0.153962565
18936,Igerøy Ø,65.6862,12.139167,0.194003873,0.169768729,0.182371537
19015,Stokkvika,63.333534,9.180583,0.422638338,0.337732264,0.131273123
19016,Storskogøya,63.506065,9.19075,0.202181611,0.347270668,0.273131621
19098,Leivsethamran,67.22784,15.348633,-0.044420968,-0.085480561,0.00751231
19115,Fugløya,63.475918,9.109833,0.156583255,0.166819663,0.181590897
19135,Sandøya III,64.24337,10.263817,0.165043002,0.180276752,0.251650809
19195,Korsholman,63.597218,8.51575,0.160202194,0.144988328,0.140565611
19235,Vindvika,67.533165,15.165583,0.029656992,0.064821167,0.0712863
19278,Forsåstorvika,68.170715,16.153233,0.167815019,0.046126624,0.101633631
19335,Eidemolla,70.67173,27.13395,0.241056798,0.212654026,0.287909339
19336,Flatholmen,59.4293,5.114483,-0.176746562,-0.153160963,0.046393162
19355,Låva,59.2966,5.990283,0.075581607,-0.190386746,-0.251705414
19356,Kvalrosskjæret,64.5387,10.877383,0.156530067,0.157966802,0.21764631
19556,Pundsvik,68.417534,16.79135,0.119257588,0.291627362,0.32317456
19635,Skatleia,68.8001,14.593767,0.210793703,0.128452289,-0.141922123
19655,Ospeneset,60.74687,5.268483,0.117012545,0.031951443,-0.15387607
19755,Klubben,65.35318,12.441067,-0.069546826,0.008835991,0.053965924
19855,Segelråa,63.149746,8.12855,0.129416189,-0.019219449,-0.09371334
19875,Or,63.039932,7.850267,0.141316095,0.118321226,-0.115591835
19939,Høysteinen,60.157417,6.050117,-0.031870609,-0.052547337,-0.169645332
19977,Jektholmen,63.99495,9.928317,0.283667107,0.261264346,0.076581298
19995,Hagahammaren,63.137917,8.0306,0.076716426,-0.064226422,-0.012646937
20075,Tjajneluokta,67.89243,16.236717,-0.034125474,-0.112898426,-0.027880274
20096,Sandholman,68.06018,13.5389,0.069526152,0.085877985,0.065276165
20115,Skjerholmen N,60.249966,5.174483,0.049802811,-0.068056945,-0.270915106
20315,Overåneset V,62.30065,7.085433,-0.088572264,-0.265533028,-0.268324496
20316,Korsnes,68.33148,14.948217,-0.079550427,0.00146414,0.051531557
20396,Bergsnes V,70.2293,23.319834,-0.064571394,0.031612981,0.055526997
20455,Djupevika,60.04095,6.009367,-0.074888328,-0.09513686,-0.155213856
20559,Langskjæra,63.8225,8.75505,0.135337405,0.229987638,0.122673762
20576,Kvanntoneset,68.81382,17.521017,-0.018438276,0.045099244,0.188512827
20595,Kyrholmen S,60.161583,5.207633,-0.024925168,-0.08870173,-0.192725859
20776,Storoksen,60.530884,4.97325,-0.143673198,-0.21448196,-0.312982803
20796,Skarbukta,62.59785,7.367717,0.159740457,0.155618585,0.223659997
20815,Slettvika,62.334,6.157667,0.066827459,0.131774909,0.212497304
20876,Børøya,68.84437,14.85465,-0.170948023,0.114048843,0.065915152
20897,Gisløy S,68.94144,15.30745,-0.084561765,0.0229502,-0.000336564
21016,Husfjord,70.549515,22.955883,0.024075142,0.129265516,0.216728041
21055,Foldøy Ø,59.337482,5.987767,0.43927987,0.238896487,-0.384794425
21176,Risvik,68.08141,16.321417,0.248026209,0.225971486,0.264610846
21335,Floteneset,61.1936,5.801617,0.079961561,-0.062233178,-0.218434969
21336,Djupeleget,61.16942,5.80735,-0.011046387,-0.267368902,-0.182163314
21337,Kveitholmen,66.3242,12.647583,0.236714311,0.347785446,0.27234818
21397,Midt Femris,67.036934,13.967767,0.060676856,0.193606081,0.210089727
21415,Dyrholmen,59.285484,5.8583,-0.090848164,-0.147320056,-0.305681431
21495,Risværgalten,64.96537,11.532783,-0.094972481,0.232354413,0.249793485
21516,Hulløyhamn Ø,68.05714,16.204468,-0.090285363,-0.030212069,0.198674847
21517,Storvika,67.534836,15.314517,0.350572946,0.275343785,0.033731409
21676,Kråkholmen,64.60255,10.854067,0.033597361,0.052700567,0.079866556
21755,Tendalsvik,59.736465,5.885317,-0.116067237,-0.277892759,-0.271393994
21795,Skarvhausen,68.339714,15.38435,0.253827709,0.199753046,0.205879903
21915,Matløyso,59.952084,5.284933,0.13458946,0.040370514,-0.279259272
21957,Hesjeholmen,68.40231,16.859266,0.170430643,0.240171948,0.253744594
22015,Fureneset,61.16562,5.052417,-0.103884516,-0.14736237,-0.234680899
22035,Buktodden Nø,66.30817,13.432333,-0.101825691,0.057222081,0.08424523
22095,Hågardsneset,59.9844,5.929967,-0.180359777,-0.133194968,-0.175154618
22315,Skavhella,60.218933,5.5593,0.010785598,-0.109031617,-0.251768204
22335,Storvika,62.8021,6.977733,0.077072916,-0.142691995,-0.18900206
22435,Stretarneset,68.67398,14.982483,-0.031289809,0.172768318,0.03472577
22455,Bjørlykkestranda,62.16655,5.5954,0.109212142,0.201853016,-0.013787089
22555,Masterholman,64.16123,10.0496,0.218136256,-0.111237006,0.398897347
22596,Hesbygrunnen,59.1944,5.801317,0.044150232,-0.168864754,-0.224441886
22775,Kvaløya,65.001915,11.058617,0.089851696,0.142358002,0.091553678
22796,Renga S,66.58763,13.096633,0.007627109,0.03443142,0.179381978
22915,Kalsøyflu,60.03818,5.114417,-0.021261426,-0.040112541,-0.209826183
22955,Svollandsneset,59.685184,5.58855,0.191205722,0.094207629,-0.14410302
22995,Oldervik,67.07103,14.113967,0.087759078,0.054272375,0.085842672
23055,Storvika V,69.043915,17.357317,-0.005227049,0.143854872,0.24749338
23056,Lekangsund II,69.03768,17.264133,-0.016567717,0.132174304,0.292322986
23375,Sørevik,61.099983,5.729967,0.043477006,-0.11225036,-0.23762914
23436,Bjørnholmen,61.20625,4.935933,0.163994004,-0.069040254,-0.116872653
23695,Skotungneset,62.34895,6.910767,0.060956779,-0.07010295,-0.13421343
23755,Kjeiprød,68.785286,17.64295,-0.160521167,-0.169521561,-0.111726608
23816,Nordbotnet,66.25612,12.8942,0.13291565,0.243141745,0.26036697
24035,Håvikvågen S,60.170483,5.699283,0.110606308,0.10219832,0.063621846
24115,Singsholmen,63.419617,8.4127,0.115779672,0.259434277,0.195751978
24135,Utåker,59.77833,5.9024,0.037024139,-0.092248155,-0.196800871
24155,Ytre Jøvik,69.42218,17.3398,-0.211348829,-0.012899963,-0.050864245
24175,Ytre Lavollsfjord,69.419464,17.287567,-0.17596566,-0.001367171,0.134201666
24196,Gjelsøya,63.48245,8.27885,-0.022659953,0.068456262,0.174693317
24197,Værøya Ø,63.415966,8.483883,0.035470928,0.063050155,0.105178643
24295,Isbergan,66.81468,13.678183,0.086709713,0.11057722,0.221155109
24315,Gjæsingen,64.117615,9.981417,-0.012317391,0.152961967,0.167825472
24455,Klavelandet,61.60395,5.186533,0.206128119,0.049167019,0.000998836
24456,Slettholmene,63.88,8.559183,0.298472087,0.16228945,0.273970292
24495,Nystølvågen,60.052334,5.79345,0.122196424,-0.111050944,-0.117426124
24535,Storholmen,70.3414,23.39285,-0.132639934,0.046798193,0.224582656
24575,Farmannsøya,64.18452,10.1222,0.1645129,0.183536896,0.289076471
24615,Grunnsøya,61.68485,4.915633,-0.48100227,-0.413006295,-0.010606087
24695,Årnes,64.59637,11.272917,0.117847495,0.037302194,0.068102981
24696,Ørnøya II,63.758484,8.450367,0.146451266,0.248296275,0.250961407
24715,Langholmen,59.097282,5.835917,0.283980014,0.063487876,-0.08667766
24735,Gulholmen,60.1282,5.400467,-0.051823787,-0.165016526,-0.356824619
24915,Bøbukta,65.66164,12.083917,0.016092879,-0.022578342,-0.440201292
24937,Nebbo,59.87075,5.725017,-0.073836813,-0.003274676,-0.117403029
24975,Kvernavika,60.069283,5.351183,-0.022066337,-0.066050494,-0.241291485
25055,Bekksneset,61.07675,5.386017,0.034316833,-0.138396044,-0.249740306
25235,Humulen,64.94605,11.372467,-0.089157485,-0.025649381,0.073119171
25695,Gjerde,62.259983,5.929183,-0.092758783,-0.091218817,-0.112567242
25736,Josommarset,67.92365,16.211517,0.036318695,-0.084500491,-0.018603928
25815,Tittelsnes,59.72365,5.534383,-0.01057422,-0.230914707,-0.330572838
25835,Flatøyflu,60.156033,5.2315,-0.098474403,-0.182450557,-0.274734975
25855,Tussøya,69.662834,18.180067,-0.093440514,0.103772087,0.148491717
25895,Flornes,59.890984,5.665983,0.070736949,-0.103167671,-0.271199026
25896,Skorpo,59.875767,5.638817,-0.044697919,-0.240764189,-0.325788721
26055,Toppsund Ø,68.863716,16.403032,0.061188405,0.163569033,0.211979416
26135,Kjørsvikgrunn,63.457565,9.076,0.118162824,0.206040757,0.10703231
26155,Slåttholmen,63.44779,8.958173,0.049259805,0.039240462,-0.033830652
26235,Stualand,59.6088,5.5269,-0.086787179,-0.070634672,-0.276049324
26295,Langøy,60.77947,5.16,-0.05846945,-0.102399906,-0.278557073
26315,Nordgjæslingan,64.76597,10.913767,0.159384383,0.17330349,0.165571182
26335,Geitholmen,64.79955,11.025933,-0.079932443,0.025766779,0.192089731
26435,Mjølsvik,61.112484,6.04255,0.005006168,-0.127766344,-0.167920682
26495,Jevik,68.412636,16.526934,0.290495594,0.406163411,0.273353315
26575,Teigane,59.520332,6.337233,-0.127776678,-0.188268294,-0.20401489
26595,Djupevika,60.035816,5.342217,-0.138955892,-0.176526469,-0.307155548
26615,Haug,68.76693,16.06485,-0.32943338,-0.232172921,-0.032874335
26675,Leirholmen,66.3565,12.530117,0.028098719,0.157433477,0.114619507
26738,Skiftesvika,59.167885,5.920667,-0.308339265,-0.1910341,-0.223672431
26775,Fjølværet Ø,63.819233,8.636133,0.133833141,0.26385051,0.194004755
26795,Austvika,64.41853,10.696033,0.145286452,0.214401533,0.17944021
26935,Frovågneset,69.06865,17.061447,0.127348565,0.107420669,0.210970972
26955,Hettaneset,59.4592,5.852867,-0.144575013,0.127256487,-0.121065174
27015,Kjøsen,70.14052,22.24615,-0.151813899,-0.004805976,0.097313149
27055,Oddane,61.540367,4.968933,0.111053863,-0.179212681,-0.258183568
27095,Ihlholmen,59.7215,5.586633,0.03198985,-0.065636146,-0.115568583
27215,Myrane,62.6505,6.726683,0.098513588,0.120094417,0.105326868
27315,Vikane 1,60.263668,6.208383,-0.111795631,-0.163435685,-0.185098758
27436,Solværet,63.255,7.856933,0.18921134,0.188464431,0.173080765
27476,Solheim,69.83117,19.52035,-0.21948193,-0.103810915,-0.10555708
27536,Flatskjæret,64.933876,11.409243,0.372491541,0.333529599,0.345127503
27556,Beøya,63.663666,8.847783,0.200827643,0.30613439,0.132742451
27856,Hundholmen,67.26553,15.125183,0.001644706,-0.148156643,-0.023389556
27876,Olderbakken,65.31118,12.368633,-0.199093589,-0.045366992,0.117969635
27976,Bukkholmen,65.918816,12.24605,0.31161531,0.305219081,0.263005949
27996,Kalvhodet,68.33881,15.236583,0.064579256,-0.020846099,0.043746114
28036,Langskjæran,67.118385,13.898417,-0.221199441,-0.002212946,0.30203921
28096,Slåttenes,59.83335,5.981417,0.144948289,0.201771629,-0.090564617
28196,Kvernes,68.40205,16.914368,0.202386373,0.241708064,0.251671769
28256,Skår,59.8994,5.532767,-0.26617033,-0.126550586,-0.051880932
28296,Skommesvik,68.71633,16.037283,-0.014346621,-0.030613571,0.186797316
28316,,,,0.231276945,0.077595895,0.075284524
28336,Breivika,66.1609,12.68205,-0.035256922,0.144615987,0.25549124
28396,Lindarholmen,60.083866,5.63925,-0.1903765,-0.400662224,-0.429578844
28416,Sandvik,60.456566,5.6922,-0.119082139,-0.128013228,-0.176703577
28636,Rataren,63.780582,8.5176,0.187788154,0.294827391,0.337467802
28676,Olvika,66.4367,13.126033,0.256030763,0.328509012,0.300892725
28896,Stangholmen,66.61802,12.954667,0.047943048,0.167674487,0.282767517
28956,Meløysjøen,66.819984,13.461467,0.031098093,0.060548547,0.162892822
28976,Kelvesteinen,60.403,5.0635,0.03301106,-0.110209624,-0.289713872
28996,Loddetå,59.691784,5.543717,0.04800881,0.007817242,-0.017188357
29016,Båfjordstranda,64.964485,11.59435,0.270947192,0.361945064,0.320056749
29056,Lille Torsøy II,63.60803,8.494633,0.227867224,0.396481677,0.286005725
29096,Grøttøy,68.44508,14.819383,-0.256682438,-0.031801118,0.263132441
29116,Reiråklakken,63.44995,8.167133,0.261764417,0.277283605,0.247540592
29276,Rongøy,60.509335,4.9317,-0.026636575,-0.095020174,-0.342390825
29296,Fleina,67.0951,13.875217,0.198674374,0.402884408,0.313725814
29336,Trælsøyosen,60.1178,5.2702,-0.005829023,-0.234986971,-0.166950117
29356,Smineset N,64.75597,11.54245,0.189390952,0.178134019,0.142793744
29376,Sundsøy,66.17637,12.770283,0.038689482,0.139482729,0.173064965
29416,Åpenvik,70.020584,29.215334,-0.029737514,0.148767996,0.137835444
29417,Ytre Vassholmen,65.93497,12.139133,0.143861753,0.197751665,0.135614495
29436,Juvika,66.1185,12.814183,-0.194694996,0.266007216,0.161882223
29458,Blåmannsvik,69.73064,18.653584,-0.427824143,-0.148369488,-0.096692924
29476,Klokkardalen,69.70953,18.363983,-0.113667829,-0.10442907,0.203068923
29537,Eldviktaren,64.454636,10.630717,0.052611303,0.069744161,0.16017335
29557,Komagnes,70.4793,23.634216,-0.084719208,0.050282766,0.056230046
29576,Kalvik,67.51317,15.570433,-0.007480201,0.1234773,0.023495862
29596,Misjona,70.885414,25.495117,0.064479851,0.148758979,0.097901177
29656,Juvika,61.1051,5.019933,0.044134363,-0.090126872,-0.27822373
29697,Hafsmo,63.3667,9.245217,0.365206946,0.373972903,0.155563159
29756,Indre Bringenes,69.48227,17.57155,0.013239084,0.047382346,0.199511924
29776,Teksmona,66.868416,13.601383,0.017053729,-0.004371,0.156285964
29816,Apalvikneset,60.146217,6.121133,-0.047904805,-0.142200239,-0.229618979
29876,Flotaren,64.52398,10.761667,-0.03470071,-0.08042399,0.079235142
29896,Renndalen,63.176117,8.6172,-0.148202633,-0.23956779,-0.281775935
29936,Ystadneset,59.977932,5.77565,0.074646021,-0.128845795,-0.172798811
29957,Nakkestad,58.055832,7.06875,0.169553812,0.247717607,0.052488085
29996,,,,-0.116638613,0.187224968,0.288526517
30036,Jørstadskjera,59.2955,5.938617,0.171046741,-0.059788378,-0.110905743
30076,Kyrøyene,64.764015,10.806633,0.115880573,0.174429165,0.182260829
30097,Djupvik,66.73299,13.33115,0.210408332,0.302177619,0.294879328
30117,Skognes,69.96132,20.978268,-0.010935817,0.059374338,0.097627111
30137,Edøya II,63.65805,8.683667,0.275568297,0.323294027,0.26015832
30156,Anevik,68.00592,15.264333,0.011091908,0.235896442,0.248176989
30157,Movik,67.63265,15.26325,0.164316056,0.209498919,0.153152232
30176,Flehammer,67.7292,15.444317,0.223519271,0.337346378,0.212270347
30177,Torgerhaugen,64.89295,11.763017,0.029075477,0.049668342,0.013090372
30196,Ådnekvamme,60.83205,5.355017,-0.091006558,-0.250701386,-0.285220833
30216,Kvitfloget,69.14508,17.6465,0.082945994,0.186689579,0.141697721
30217,Storelva,70.13225,20.789433,-0.100600233,-0.002529475,0.141969694
30236,Toppsund V,68.91164,16.2927,0.014607309,0.08937603,0.253362424
30257,Hausan,63.458317,8.955683,0.080452249,0.246839643,0.032927522
30297,Krabbholmen,63.944485,9.8814,0.115566674,0.195969659,0.152418381
30377,Hogsneset N,63.099934,7.670267,0.205581261,0.188899564,0.102805104
30397,Bergsøy,67.897,15.15785,0.275614566,0.427468134,0.180554839
30437,Kattholmen II,63.864784,8.676583,0.116834995,0.252879104,0.2671614
30517,Trælvika,69.51847,17.68705,-0.114620377,-0.123773623,0.071097106
30518,Ørnfjordbotn,69.49139,17.672916,0.008104849,-0.085970778,0.098929355
30537,Steinflesa,65.134834,11.515983,0.014496823,-0.057696632,0.161363924
30559,Øksneset,60.81255,4.862317,-0.016775112,-0.141108954,-0.270301669
30560,Tristeinen,63.868935,9.619183,0.042994953,0.247966138,0.25322665
30637,Rahkasluokta,68.02507,16.21425,-0.002933622,-0.020213122,0.038529152
30657,Revøy,58.0243,7.0268,-0.030401695,0.108983817,0.025189689
30717,Tveitnes,60.41365,6.4012,-0.166831344,-0.162380279,-0.155735546
30737,,,,0.0809047,0.157210468,0.241803882
30757,Skog,69.474335,17.878683,-0.077955785,-0.158956751,-0.210333286
30817,Raudøya,64.3646,10.439133,0.195351787,0.087506556,0.033534489
30837,Torangskjeret,60.130184,5.176033,-0.132384376,-0.063467825,-0.065312082
30857,Leirvik,67.0267,14.126283,0.027192408,0.046658068,0.03051826
30877,Sessøya,69.746735,18.248684,0.025524034,0.141070874,0.268307961
30897,Havsundet,63.79933,9.440483,-0.007931541,0.069591024,0.035896722
30917,Elgen,68.87711,16.282368,0.045470369,0.076271873,0.256372479
30957,Salaluokta,68.033585,16.25385,-0.032934547,0.008142595,0.074957398
30977,Æsøya,68.104866,13.790067,-0.083750885,-0.004146807,0.114363084
30997,Skrubbholmen,64.801735,11.162183,-0.16608582,-0.06957369,-0.044564433
31037,Masterholman II,64.161964,10.036433,0.524571426,-0.027947669,0.177079676
31038,Buarøy,60.220066,5.21455,-0.073511925,-0.111450498,-0.277457933
31077,Tjukkeneset,68.47487,17.303932,-0.123598322,-0.104877275,0.00959771
31117,Skrubbo,60.15632,5.713217,0.264748945,0.029644608,-0.149222017
31137,Danielsnes,70.19168,22.321016,-0.15046548,0.002002623,0.132610296
31157,Fiksneset,60.176884,5.124833,-0.074091051,-0.196826923,-0.13299794
31177,Hilderkleiva,68.78005,16.0978,-0.118948533,-0.026786041,0.027933134
31217,Stokkasjøen,65.78252,12.591783,0.005760174,0.101779282,0.139156935
31297,Tortenneset,68.485916,17.338667,0.137843771,0.185749807,0.209025525
31317,Bjørkvik,68.02925,16.131416,0.12129775,0.127483127,0.128673697
31338,Storskjeret,63.27048,8.2298,0.100542532,0.055068448,0.041161586
31357,Geitryggen,64.75127,11.189217,-0.153014891,-0.049190429,-0.05075174
31397,Oterneset,68.9288,16.701366,0.036390976,0.195706597,0.174704742
31398,Finnvik,69.89297,18.807934,-0.19125992,0.041662949,0.075581442
31437,Fuglåsen,63.44715,8.167767,0.12007502,0.127417617,0.148631808
31457,Skarvestein,69.99355,20.7111,-0.282875478,-0.226931993,-0.035413771
31477,Kilavågen Sjø,59.317966,6.2872,0.181577581,0.184819517,0.112934842
31497,Toska N,60.66987,4.9172,-0.091550208,-0.125799186,-0.19392699
31517,Kamholmen,63.762417,8.882933,0.090687104,0.17828235,0.2127049
31557,Valøyan,63.81835,8.463817,0.329203525,0.32045335,0.205264798
31577,Haneholmen,61.839718,6.10055,-0.23987163,-0.254210078,-0.252813419
31637,Melkøya,66.08141,12.2005,0.00965931,0.197036801,0.277375738
31677,Sandholmane,62.79658,6.67125,0.108797439,0.023485594,0.054236134
31697,Oksen,60.43418,4.94065,-0.000438686,-0.06148913,-0.348942553
31717,Gjerset V,62.53023,6.429083,-0.203144831,-0.058868282,-0.025765289
31738,Bjørga,69.153984,17.948418,0.123365231,0.265552721,0.30037792
31757,Kasteberget,68.79125,16.914017,0.003658432,0.138390385,0.242571309
31777,Reinvika,67.60568,15.368483,0.174198506,0.238300286,0.155541185
31797,Fartøyvika,70.828514,24.450483,-0.222362617,0.040080402,0.029777119
31817,Svartskjær,68.718285,16.775467,0.052745579,0.18070604,0.157619481
31857,Blomsøråsa,65.85637,12.311833,0.369556171,0.355785058,0.404178106
31877,Barøya,64.62112,11.235517,0.151909528,0.139573473,0.062102258
31917,Kirkeneset,70.71336,23.827433,-0.019871529,-0.012518144,0.066278641
31958,Ratvika,63.97185,9.954783,0.265040206,0.40333209,0.424663241
31959,Rataren II,63.782383,8.52635,0.13173049,0.261446188,0.312487207
32017,Ånholmen,64.7198,11.461683,0.130254687,0.074372033,0.113213831
32037,Grasholman,66.3489,12.777717,0.073789039,0.188501932,0.193698918
32057,Lyngøy,64.81865,10.935217,-0.093697202,0.138731158,0.118844999
32097,Korsneset 2,63.14123,8.21375,0.143143384,0.083537957,0.026934448
32117,Dyrholmen Ø,59.9332,5.239467,0.120628832,-0.043077284,-0.093030295
32137,Sagen 2,60.348385,5.644033,-0.109665737,-0.075964506,-0.003377346
32157,Dyrholmen V,59.928017,5.23015,0.059134693,0.069716905,-0.090384067
32197,Dryna,62.64467,6.557633,0.078095809,0.151183562,0.072176388
32217,Kvernaneset,59.685318,5.4311,-0.019444972,-0.140644238,-0.316746118
32237,Sloppegrunn,70.22045,21.809067,-0.166602871,-0.073457174,0.078407789
32257,Kjøtta V,68.8658,16.670218,0.10499382,0.166158677,0.270814309
32277,Andholmen 1,63.469215,7.8523,0.093017465,0.192468017,0.168897856
32297,Andholmen 2,63.46745,7.847167,-0.008743965,0.104401656,0.085573604
32317,Guriøyna,61.297768,4.660867,0.092601961,-0.126751638,-0.127097106
32337,Veiesund,61.57187,5.047283,0.109712249,-0.059482282,-0.168214533
32397,Storvika I Skjerstadfjorden,67.202934,15.2751,0.037977017,0.093088066,-0.043508428
32417,Hjartholmosen,60.00458,5.2287,0.003349055,-0.015739441,-0.23813579
32437,Urda,63.0007,8.326967,0.020211974,-0.010924224,0.12915503
32457,Dalsvåg Nv,59.410816,5.21725,0.054009591,0.038894764,0.01369741
32497,Daljorda,68.697,14.963383,0.109203336,0.16462241,0.276745842
32518,Kuøyna,60.996418,4.897983,-0.005325055,-0.291353539,-0.141183676
32537,Baltsfjord,69.54605,17.77085,-0.048495306,0.051093368,0.153685333
32577,Klammerholmen,60.08165,5.168567,-0.014799177,0.013134981,-0.1203848
32597,Fjordprakken,63.256516,7.928067,0.100050195,0.188756918,0.147036439
32598,Kokelv,70.6381,24.5791,0.059401527,0.120893254,0.129052593
32617,Ytre Koven,70.1421,22.89265,-0.254515794,-0.21268271,0.019232114
32637,Veidnes,70.53992,30.136583,0.029689814,0.060908402,0.270451882
32677,Espnestaren,63.677883,8.667,0.048388616,0.164757673,0.277758046
32697,Steilo,68.51185,14.951633,-0.07888249,-0.012790153,0.09330642
32717,Tranøya N,63.87185,9.76985,-0.003878633,0.123943828,0.013269057
32733,,,,0.358191077,0.790003897,0.752428322
32737,Heldalen,68.10022,13.620333,0.17038138,0.186391132,0.119894826
32757,Horgefjorden,60.100834,5.117067,-0.040281732,0.01346725,-0.001561159
32777,Hundbergan,69.556885,17.61055,0.145763938,0.253765711,-0.164858728
32797,Elvevika,70.9178,25.006268,-0.145275381,0.120171521,0.126812168
32857,Trettholmosen,59.831932,5.0801,-0.051873359,-0.003113238,-0.170738272
32877,Skorpo,60.173317,5.293683,-0.100000366,-0.171152475,-0.292966725
32897,Breivika S,66.15802,12.682067,-0.072309764,0.087317436,0.207561087
32917,Gregusvika,68.81815,17.346916,-0.065042708,0.061585977,0.22222043
32957,Bjørshammaren,66.14032,12.91035,0.124971361,0.052101323,-0.25535124
32977,Måren,61.152668,6.1167,-0.139324179,-0.330826835,-0.113820678
32997,Raven,68.28668,15.122683,0.135560764,0.10989948,0.195001763
33017,Setevika N,62.73835,6.937667,0.061414911,-0.039148664,-0.020273745
33077,Elveneset,61.205833,5.131717,0.066516222,-0.066054275,-0.162822756
33097,Skjervøy V,70.04375,20.94965,-0.100187156,0.043639685,0.06932559
33117,Djupvik,68.60365,15.34815,-0.399327965,-0.313625052,0.035295019
33157,Skogsholmen,65.83141,12.070533,0.058834501,0.146572628,0.164928338
33177,Krabbholmen II,63.94,9.886633,0.126342089,0.169437178,0.180447806
33197,Jernelva,70.449585,23.63825,-0.014424648,0.114207921,0.086151262
33218,Hosenøyan,64.08518,9.884683,0.093180756,0.125040227,0.174732026
33297,Nye Skorpa,66.03093,12.481483,-0.124603437,0.002147491,0.035729122
33337,Lyngnes,60.119682,5.719817,-0.051493583,-0.255758625,-0.358359992
33357,Gullklakken,63.479218,7.999867,0.236433233,0.240666452,0.21423073
33417,Persflua,63.91345,9.826433,0.056197628,0.144565934,0.129038534
33457,Ånderbakk,67.75467,15.70465,0.082625121,0.220345914,0.226141903
33477,Reinsnesøya,68.76978,15.4441,-0.068226816,0.066983159,-0.086390953
33517,Petternes,70.8172,24.590567,0.012021202,-0.056384534,-0.059999361
33537,Buholmen,64.1569,10.008917,0.177523379,0.26546948,0.299627788
33557,Langskjæra II,63.821815,8.743433,0.213212385,0.296169307,0.154473412
33577,Kjeholmen II,58.06008,6.885683,5.98E-05,0.016605151,0.119961084
33597,Grytøyraholmen,61.29278,5.014117,-0.039316493,-0.262824554,-0.383911877
33617,Gjerde,63.299667,8.418333,-0.008524855,0.037250158,0.060432843
33657,Movikodden N,66.53287,12.888433,0.19823091,0.361922257,0.420752061
33677,Torvund,61.14467,5.656367,-0.054821193,-0.329929591,-0.241888763
33697,Forrahammaren,63.350433,9.23325,0.326584952,0.378503828,0.108213919
33737,Olausskjæret,63.7917,8.504717,0.287941807,0.245843615,0.357558726
33757,Håbranden,63.942,9.133483,0.228273707,0.105479926,0.08582715
33777,Lausklubben,70.02435,29.292183,0.002323064,0.188921847,0.073658548
33797,Hidlekjerringa,59.0676,5.839367,0.155563338,-0.139017783,-0.154348368
33937,Nørholmen,63.338917,8.2718,0.074179207,0.094417116,0.01664048
33957,Hofsøya,63.7224,8.9145,0.214472419,0.434481116,0.266345018
33997,Næringsbukta,70.65892,22.642418,0.131003091,0.136374625,0.078393886
33998,Klubben,70.66396,22.6224,0.029929587,0.073139073,0.059278109
34017,Hilbåan,63.6686,8.844717,0.072358555,0.231980534,0.158436902
34018,Dolma N,65.02533,11.676017,0.532573184,0.10904107,-0.020676888
34037,Kråkåsen,67.73985,14.896817,0.260451615,0.382201105,0.234431594
34057,Mohamn,69.12883,17.79755,0.079892694,0.195060894,0.224904579
34117,Skåtholmen,60.17177,5.563633,-0.036447525,0.036454513,-0.117170833
34137,Skårliodden,69.47588,18.070084,-0.273968969,-0.174749237,0.191676263
34197,Brennholmen,65.978714,12.16355,-0.170367144,0.091273123,0.314708683
34257,Lekafjorden II,65.07878,11.724033,-0.19015208,-0.126553552,-0.03941619
34277,Mikkelsøya,68.65618,14.729933,-0.194335285,-0.171268282,-0.025250401
34297,Stabben,68.40113,16.2172,0.237164009,0.321309606,0.373338211
34337,Olstind,67.95035,13.077717,0.009826189,-0.019808112,0.498169603
34357,Gisløy Nø,68.970535,15.264783,-0.078378699,0.037215806,0.107040151
34397,Hyseneset,60.86,4.963083,0.079634441,-0.134576381,0.09781129
34457,Langås,70.01095,19.66665,-0.074755138,0.012289596,0.335548395
34477,Nausttaren,64.389565,10.512533,0.24012662,0.091036218,0.129885013
34537,Nystølvågen II,60.05005,5.794033,-0.38705839,-0.584559639,-0.385051159
34577,Enkeneset,70.56365,24.119066,-0.043123955,0.15612767,0.33607069
34597,Seiballskjæret,63.76718,8.908517,0.55430556,0.204336793,0.250642258
34617,Gråøya,63.47635,7.951517,0.249607719,0.128078157,0.192164711
34637,Langholmen N,68.66638,14.914717,0.039859662,0.12622156,0.232596798
34657,Laberget,60.749916,5.298833,-0.035015126,-0.110690827,-0.360074348
34677,Hestøya,63.3095,8.115567,0.059075587,-0.19589398,-0.06418644
34697,Øyra,70.774765,27.2185,0.063044578,0.07323875,0.194161324
34717,Eidisholman,68.13462,13.867217,0.100641051,0.140861449,0.059410851
34737,Ulvøyo,59.432583,5.106567,0.060794478,-0.159202822,0.001315484
34797,Kalvhagan II,64.95078,12.0567,-0.120515573,0.112997553,0.009240381
34857,Salatskjæra,63.90485,8.589133,0.008025135,0.261586991,0.347400687
34897,Brandsfjorden,64.22307,10.279933,0.126816937,0.073217961,0.16471624
34917,Tosen,65.249435,12.815283,-0.254775638,-0.069565776,0.112374684
34997,Bjørnøya,67.4164,14.428667,-0.000325473,0.066886851,0.195124992
35197,Hjortøya,64.9848,11.135467,0.017696114,0.113990134,0.237765396
35237,Durmålsvika,69.4328,18.147734,-0.181678108,-0.078326472,0.011240327
35297,Ådnøy Sø,58.91455,6.028583,0.077824136,-0.181828272,-0.167895311
35317,Litjevika,69.00265,17.440567,-0.038208346,0.059536289,0.148720054
35318,Sortevika,69.0188,17.520067,-0.122170231,-0.075855294,-0.016673065
35337,Småvær,69.896866,18.486267,-0.078292128,0.118662315,0.203174523
35377,Kveitskjeret,63.82503,8.444633,0.183642561,0.21954785,0.191341632
35417,Sandøya,67.7382,14.75345,0.29833931,0.417618917,0.2891571
35477,Makrellskjæret,64.54919,10.734183,0.179774549,0.158552768,0.181784838
35497,Drøno,60.08077,5.192033,-0.050418665,0.026566837,-0.214962634
35517,Vadholmen,60.695,4.761117,-0.050660576,0.114783755,0.023187554
35597,Follesøy,69.91572,20.601418,0.017241571,0.137653461,0.095777527
35617,Mulnesodden,67.14398,14.2799,0.080754692,0.041391713,0.313528103
35657,Varden,63.635715,9.186467,0.233611677,0.349598559,0.406020158
35677,Brottøy,68.4885,15.125917,0.021258985,0.068949694,0.22301951
35777,Kvitskjæret,66.1008,12.157333,-0.138584177,0.053025205,0.348864447
35797,Årsetfjorden,65.00819,11.746417,0.085781275,0.189153437,0.220838932
35817,Storevika,67.18557,14.388433,0.167314227,0.322125187,0.362480552
35838,Vengsøy,69.8227,18.51875,-0.069407631,-0.048733995,0.191710264
35877,Eiterfjorden,64.971634,11.723933,0.170220436,0.123072372,0.132782835
35897,Nye Hessvik,60.130184,6.126617,0.049829875,-0.136225402,-0.180453377
35957,Danielsvika,70.670586,24.488768,0.080435618,0.132111431,0.007271775
35977,Lian,66.55787,13.525907,-0.005317318,-0.038093815,0.140665108
35997,Kviteberg,69.953865,21.88035,-0.183346365,-0.098145252,0.081937175
36017,Sørværet,65.88035,11.93045,-0.002861999,0.144688668,0.281058515
36037,Klipen,66.1336,12.851983,-0.058294989,0.160830119,0.31913181
36077,Mollvika,68.936584,16.723383,-0.002320141,0.171748169,0.189709545
36099,Store Kobbøy,70.91161,25.32495,-0.24479947,-0.187345945,-0.066065507
36100,Suholmen,63.494934,8.02235,0.057429828,0.057342631,0.111557766
36117,Matvika,67.528,15.359683,0.067936844,0.270547089,0.247342961
36118,Bremnesøya,68.82377,15.400217,-0.032731292,0.13620555,0.030871108
36137,Jekteberget,68.85322,17.06575,-0.069122561,-0.077943018,-0.046353745
36138,Flatøyfjorden,64.27302,10.246233,0.233952025,0.267465946,0.28315931
36177,Skjellesvika,68.91143,16.645132,0.045682433,0.058876584,0.248766694
36178,Haukøya Ø,70.046135,21.282034,0.033362052,0.032014212,0.04170945
36217,Kalvhylla,65.74827,12.540533,-0.179905595,0.001461844,0.108491725
36237,Vorterøya,69.96655,20.615282,0.013855068,0.047753374,0.115770026
36257,Mjønes,70.10643,19.583866,0.15938899,0.173141012,0.138188996
36297,Kjeringeholmen,61.390984,4.982833,0.068194546,-0.151439056,-0.254777253
36317,Varholmen,65.54652,12.127967,0.018820912,0.262124931,0.333556925
36337,Vardskjæret S,66.350266,12.469867,0.090120905,0.127006147,0.060135543
36417,Borvika,70.75667,23.4353,0.081519042,0.146812406,0.236131458
36457,Kvingra,65.20317,11.569,0.272120505,0.283455152,0.199329304
36497,Lille Djupfest,68.47665,16.09135,-0.204694906,0.086874417,0.237791093
36517,Selsøyvær,66.5896,12.84965,0.210983051,0.372851423,0.392963426
36617,Harbakholmen,64.953316,11.195717,-0.225300537,-0.218876775,0.175867494
36717,Vindhammarneset,69.468414,17.606182,-0.071823057,0.105254887,0.259019268
36737,Hallsteinhamn I,67.44185,14.71595,-0.144257638,0.069397825,-0.010467106
36757,Lubben,69.936714,19.832184,-0.13249125,-0.093292718,0.277874761
36778,Havstein Sør,66.16405,12.400767,0.110702652,0.058364719,0.110175159
36797,Korsnes,69.986916,19.931633,-0.085417817,-0.030469081,-0.043890733
36817,Kariskjæret,67.38288,14.380617,-0.005873241,0.152391419,0.283786603
36917,Drevflesa,64.21093,10.115183,0.212296326,0.066273875,0.145780905
36937,Hallvardsøya,69.15137,16.906532,-0.08929756,-0.042534468,0.255906112
37057,Mjøsund Vest,68.90805,17.407818,-0.035239817,0.173913824,0.316184287
37077,Oksbåsen,65.19105,12.6723,-0.134247739,0.059339218,0.170050487
37177,Djuptaren,64.769264,10.629017,-0.292281613,-0.246638405,-0.099704122
37197,Ruggstein,63.770084,8.476033,0.179982435,0.294233188,0.34514621
37217,Dale,68.92503,16.3452,0.146813146,0.089936564,0.265201215
37237,Børfjord,70.64533,22.694317,-0.296492251,-0.01935852,0.03910839
37297,Larstangen,70.08442,20.090418,-0.439675714,-0.254434831,-0.026332985
37357,Brensholmen,69.57837,17.994267,-0.305726075,-0.08325429,0.099475303
37557,Davatluft,70.245384,22.87385,-0.075637902,0.004414479,-0.014091203
37717,Vassgåsholmen,63.592167,9.339833,0.26861025,0.38341825,0.278478185
37797,Skjortneset II,62.379368,6.889433,-0.106520332,-0.242738709,-0.156197349
37857,Seiskjæret,65.93428,12.071567,0.006433707,-0.000922172,-0.020723416
38217,Hardbakkeneset,61.01673,4.950517,0.313191751,0.053135923,-0.000875612
38277,Nordre Skokkeløy,64.35658,10.424967,0.346877947,0.402779982,0.432665301
38297,Sør Gåsvær,66.03118,12.02305,0.188377088,0.262336038,0.385748156
38517,Måvær,66.47767,12.7355,-0.005203839,0.038553377,0.271556827
38577,Skreda,61.14635,5.08115,-0.052005195,-0.197189204,-0.15772814
38697,Takflua,63.980667,9.868733,0.038695985,0.143802105,0.168964061
38757,Gaukværøy,68.61298,14.34655,-0.267720484,-0.193289406,0.063090701
38777,Hallarvik,63.647266,8.699267,0.198674171,0.180363519,0.208950683
38797,Oløya N,63.852734,8.591083,0.201484392,0.358576606,0.307186821
38817,Skjåvikodden I,65.47945,12.176217,-0.506571004,-0.067314156,0.223249498
38857,Vannfjorden,71.017784,25.38915,-0.302749156,-0.183967037,0.040398488
38877,Jernøya,70.80725,25.81915,0.179425373,0.211452962,-0.103933775
38957,Låderskjera,59.194965,5.478617,-0.137112699,-0.150079579,-0.175504417
38997,Ilsøya 2,63.664482,8.42935,-0.131550744,0.145090943,0.282864097
39197,Kverhelleskjeret,60.99405,4.69375,0.012232064,-0.162432675,-0.012394639
39237,Sandkvia,61.4837,5.137283,0.042488147,-0.102681733,-0.040369624
39377,Husevågøy,61.916332,5.06495,-0.290410319,-0.602085293,-0.592773481
39437,Hovden,61.707684,4.911383,0.119263895,0.02121276,-0.346241027
39477,Hundvika Aust,61.872215,5.953667,-0.362205377,-0.280274061,-0.276145026
39537,Gyltneset,64.683815,11.36595,0.559409882,0.445747008,0.291040989
39577,Silda,62.016468,5.21165,0.147790355,0.090002052,0.060908041
39597,Gåsflestaren,65.25203,11.5664,0.177255974,0.179217404,0.203850328
39617,Svanøya,63.416634,7.79165,0.218914639,0.262323934,0.066275029
39657,Skipperdalsneset,61.80602,5.0683,-0.041420174,0.042328377,-0.099395033
39777,Ytre Hadseløya,68.50135,14.585667,-0.387205677,-0.281272165,0.306615952
39917,Fureneset,61.79855,5.131133,0.280386355,-0.000315309,-0.225972426
39937,Orholmen,62.77625,6.78015,0.14199907,0.03358917,-0.142279038
39957,Flatøyan,63.873585,8.4714,0.097350811,0.279752817,0.144625944
39997,Helligvær Ø,67.42167,14.032183,0.015507979,-0.138293544,0.421551533
40017,Stangnes,70.51192,23.751883,-0.126942972,-0.084254744,-0.104294431
40037,Smedholmen,59.344616,5.8946,0.090202302,0.150386585,-0.084409674
40117,Otervika,65.161736,11.968417,0.404485487,0.203795295,0.113282404
40118,Svindalen I,68.92783,15.42875,-0.055314288,0.032598734,0.128311691
40137,Lønngrunnen,63.937534,9.779517,0.032876243,0.1349304,0.149869335
40297,Gnarnesvika,61.506382,5.05,-0.212017597,-0.337979829,0.109416632
40357,Nordnesbukta,70.721535,23.340933,0.039346019,0.032448306,0.22078147
40377,Klampvika N,65.21104,12.250167,0.300826494,0.305183078,0.260555086
45000,Svartberget,70.01877,22.020733,0.073530863,0.007154154,0.10828397
45002,Korsvika,66.57847,12.691067,-0.060429379,-0.052568484,0.153392053
45003,Ystøya,65.7725,12.245217,-0.004982303,0.04114055,0.102919071
45004,Mulen,67.66928,15.198867,-0.04190551,-0.270250187,-0.129603176
45005,Grøtnes N,70.580536,23.6761,0.284668902,0.469280493,-0.375354946
45010,Holand,68.63108,15.269267,-0.15424925,0.056787737,-0.031503461
45013,Sandskjæret,65.3103,12.326,0.013222386,-0.002006424,-0.057319779
45014,Nordfoldleira I,67.75228,15.239067,-0.005376614,-0.052554829,-0.323496608
45017,Bakfjorden,70.87483,24.616966,-0.029082809,0.279825009,0.23486511
45018,Ny-Hellaren,62.73923,6.768683,0.222066869,0.271702303,0.211967839
45023,Varpet,66.32025,13.055833,0.052237029,0.027912769,0.080451739
45025,Vegglandet,70.54208,23.241882,0.133478076,-0.064065035,0.162821123
45028,Mulnesodden S,67.14267,14.27865,-0.177759363,0.298266727,0.435070104
45029,Ramnøya N,66.243484,12.294183,-0.155169988,-0.203830807,0.006516134
45032,Ytterflesa,64.972984,11.443517,0.182875605,0.38367447,0.346998742
45037,Kjølvika I,67.174965,14.2901,0.481427489,0.379631101,0.639460097
45038,Hundaneset,59.308735,6.165483,0.156648195,0.049573965,-0.136397395
45044,Linesvika,66.53785,13.325183,-0.179865685,0.22705669,-0.451710588
45046,Stasøya,64.80155,11.633783,-0.076793096,0.040832875,0.095624605
45049,Bergkråa,68.160866,16.333282,0.312577815,0.386313872,0.468861096
45050,Skarvhammaren,65.834015,12.553983,-0.087028178,-0.302628563,-0.172600611
45058,Urdaneset,62.319283,6.978617,0.14074596,-0.041469444,-0.073544643
45060,Pundsvik I,68.4208,16.783583,0.606005009,0.604355089,0.487641814
45066,Lingaholmane,60.249382,6.05955,-0.41901288,-0.010697272,0.115929554
45068,Grænholmen,68.07142,13.469983,-0.161481745,-0.408186973,-0.012743021
45070,Kristianneset,70.8911,25.01295,0.154444537,0.159310564,-0.175589574
45072,Bleket,61.911667,5.092217,-0.365726592,-0.364591948,-0.354380739
45077,Ørnhaugneset,67.98025,15.5878,0.10941524,-0.047929091,-0.033072586
45078,Almbakkevika,61.620335,5.271967,0.144648215,0.395886705,-0.031222515
45080,Hestvik,66.581764,13.206917,-0.426391747,-0.426639981,-0.36744746
45081,Langøya,66.06672,12.252833,0.303704377,-0.100014827,0.300240907
45083,Vorterøyskagen,69.98715,20.664618,0.002634065,-0.012362097,0.001518804
45087,Aukan,63.0603,7.594283,-0.260572085,-0.350433562,-0.240434053
45092,Smælingen,64.09392,9.903667,0.183341268,0.116301324,0.20177664
45122,Lausund,62.598232,6.180333,-0.068234522,0.109429045,0.427715822
45127,Hellerflesa,65.03512,11.730767,0.269615092,0.222127021,0.19042741
45129,Kvitholmen,63.46975,8.156933,-0.06054414,-0.023608417,0.057847223
45134,Bugane,62.438816,6.816167,-0.146527941,-0.548621546,-0.205001791
45135,Voravika,62.229916,5.49525,0.431845447,0.109687062,-0.376503892
45154,Langneset,70.05127,19.76845,0.394883894,0.578479608,0.457301772
45167,Heggeset,62.973415,7.645567,0.13310258,-0.04227637,-0.392373184
